{"data":{"cities":{"name":"Район","count":15,"letters":{"1":{"items":[{"id":"ct-93","uId":93,"parents":"Самаркандская область &raquo; Город","name":"Акдарьинский район","lat":"39.8371300","lng":"66.7523890","region_id":9},{"id":"ct-94","uId":94,"parents":"Самаркандская область &raquo; Город","name":"Булунгурский район","lat":"39.7119160","lng":"67.3269700","region_id":9},{"id":"ct-95","uId":95,"parents":"Самаркандская область &raquo; Город","name":"Джамбайский район","lat":"39.7898270","lng":"67.0852690","region_id":9},{"id":"ct-96","uId":96,"parents":"Самаркандская область &raquo; Город","name":"Иштыханский район","lat":"40.0214180","lng":"66.5264810","region_id":9},{"id":"ct-97","uId":97,"parents":"Самаркандская область &raquo; Город","name":"Каттакурганский район","lat":"40.0468220","lng":"66.2614780","region_id":9},{"id":"ct-98","uId":98,"parents":"Самаркандская область &raquo; Город","name":"Кошрабадский район","lat":"40.3795150","lng":"66.5333890","region_id":9},{"id":"ct-99","uId":99,"parents":"Самаркандская область &raquo; Город","name":"Нарпайский район","lat":"39.9331160","lng":"65.9824790","region_id":9},{"id":"ct-100","uId":100,"parents":"Самаркандская область &raquo; Город","name":"Нурабадский район","lat":"39.6309990","lng":"65.9936270","region_id":9},{"id":"ct-101","uId":101,"parents":"Самаркандская область &raquo; Город","name":"Пайарыкский район","lat":"40.0169010","lng":"66.8865890","region_id":9},{"id":"ct-102","uId":102,"parents":"Самаркандская область &raquo; Город","name":"Пастдаргомский район","lat":"39.6604310","lng":"66.6622970","region_id":9},{"id":"ct-103","uId":103,"parents":"Самаркандская область &raquo; Город","name":"Пахтачийский район","lat":"39.8852500","lng":"65.5691110","region_id":9},{"id":"ct-107","uId":107,"parents":"Самаркандская область &raquo; Город","name":"Самарканд","lat":"39.6545150","lng":"66.9688470","region_id":9},{"id":"ct-104","uId":104,"parents":"Самаркандская область &raquo; Город","name":"Самаркандский район","lat":"39.5491380","lng":"66.9405860","region_id":9},{"id":"ct-105","uId":105,"parents":"Самаркандская область &raquo; Город","name":"Тайлакский район","lat":"39.5707980","lng":"67.1501810","region_id":9},{"id":"ct-106","uId":106,"parents":"Самаркандская область &raquo; Город","name":"Ургутский район","lat":"39.4055810","lng":"67.1455010","region_id":9}]}},"letterTabs":[1]},"z-30":{"name":"Махалля","count":4,"letterTabs":["Б","К","Н"],"letters":{"Б":{"name":"Б","count":1,"items":[{"id":"zn-10527","uId":"107-10527","parents":"Самаркандская область &raquo; Самарканд &raquo; Махалля","name":"Бекхо","type_id":5,"lat":"39.6226980","lng":"66.9400390","city_id":107,"region_id":9,"typeName":"Махалля"}]},"К":{"name":"К","count":1,"items":[{"id":"zn-10530","uId":"107-10530","parents":"Самаркандская область &raquo; Самарканд &raquo; Махалля","name":"Кул","type_id":5,"lat":"39.6274980","lng":"66.9353490","city_id":107,"region_id":9,"typeName":"Махалля"}]},"Н":{"name":"Н","count":2,"items":[{"id":"zn-10551","uId":"107-10551","parents":"Самаркандская область &raquo; Самарканд &raquo; Махалля","name":"Навбогчиён","type_id":5,"lat":"39.6284980","lng":"66.9256120","city_id":107,"region_id":9,"typeName":"Махалля"},{"id":"zn-10523","uId":"107-10523","parents":"Самаркандская область &raquo; Самарканд &raquo; Махалля","name":"Намазгох","type_id":5,"lat":"39.6382510","lng":"66.9666740","city_id":107,"region_id":9,"typeName":"Махалля"}]}}},"z-40":{"name":"Улица","count":24,"letterTabs":["D","H","Y","А","Б","Д","И","К","Л","М","Н","Р","С","У","Х","Ш"],"letters":{"D":{"name":"D","count":1,"items":[{"id":"zn-10554","uId":"107-10554","parents":"Самаркандская область &raquo; Самарканд &raquo; Улица","name":"Darg'om ko'chasi","type_id":3,"lat":"39.6883790","lng":"66.9175630","city_id":107,"region_id":9,"typeName":"Улица"}]},"H":{"name":"H","count":1,"items":[{"id":"zn-10544","uId":"107-10544","parents":"Самаркандская область &raquo; Самарканд &raquo; Улица","name":"H. Obiddinova ko'chasi","type_id":3,"lat":"39.6529110","lng":"66.9312350","city_id":107,"region_id":9,"typeName":"Улица"}]},"Y":{"name":"Y","count":1,"items":[{"id":"zn-13330","uId":"107-13330","parents":"Самаркандская область &raquo; Самарканд &raquo; Улица","name":"Yarmuxammedova ko'chasi","type_id":3,"lat":"39.6551540","lng":"66.9272550","city_id":107,"region_id":9,"typeName":"Улица"}]},"А":{"name":"А","count":2,"items":[{"id":"zn-10546","uId":"107-10546","parents":"Самаркандская область &raquo; Самарканд &raquo; Улица","name":"Абдулхаурхана","type_id":3,"lat":"39.6505920","lng":"66.9305700","city_id":107,"region_id":9,"typeName":"Улица"},{"id":"zn-4212","uId":"107-4212","parents":"Самаркандская область &raquo; Самарканд &raquo; Улица","name":"Алишер Навои","type_id":3,"lat":"39.6528480","lng":"66.9565760","city_id":107,"region_id":9,"typeName":"Улица"}]},"Б":{"name":"Б","count":1,"items":[{"id":"zn-10531","uId":"107-10531","parents":"Самаркандская область &raquo; Самарканд &raquo; Улица","name":"Бабура Мирзо","type_id":3,"lat":"39.6416400","lng":"66.9492280","city_id":107,"region_id":9,"typeName":"Улица"}]},"Д":{"name":"Д","count":2,"items":[{"id":"zn-10553","uId":"107-10553","parents":"Самаркандская область &raquo; Самарканд &raquo; Улица","name":"3-й проезд Давлат","type_id":3,"lat":"39.6816880","lng":"66.9166370","city_id":107,"region_id":9,"typeName":"Улица"},{"id":"zn-4210","uId":"107-4210","parents":"Самаркандская область &raquo; Самарканд &raquo; Улица","name":"Дагбитская","type_id":3,"lat":"39.6657980","lng":"66.9704110","city_id":107,"region_id":9,"typeName":"Улица"}]},"И":{"name":"И","count":1,"items":[{"id":"zn-15683","uId":"107-15683","parents":"Самаркандская область &raquo; Самарканд &raquo; Улица","name":"Иштыханская","type_id":3,"lat":"39.6656310","lng":"66.9330500","city_id":107,"region_id":9,"typeName":"Улица"}]},"К":{"name":"К","count":2,"items":[{"id":"zn-10538","uId":"107-10538","parents":"Самаркандская область &raquo; Самарканд &raquo; Улица","name":"Клавихо","type_id":3,"lat":"39.6486330","lng":"66.9733390","city_id":107,"region_id":9,"typeName":"Улица"},{"id":"zn-4207","uId":"107-4207","parents":"Самаркандская область &raquo; Самарканд &raquo; Улица","name":"площадь Куксарай","type_id":3,"lat":"39.6548140","lng":"66.9684790","city_id":107,"region_id":9,"typeName":"Улица"}]},"Л":{"name":"Л","count":1,"items":[{"id":"zn-4214","uId":"107-4214","parents":"Самаркандская область &raquo; Самарканд &raquo; Улица","name":"Лахути","type_id":3,"lat":"39.6694150","lng":"66.9465510","city_id":107,"region_id":9,"typeName":"Улица"}]},"М":{"name":"М","count":2,"items":[{"id":"zn-10533","uId":"107-10533","parents":"Самаркандская область &raquo; Самарканд &raquo; Улица","name":"Махмуда Кашгари","type_id":3,"lat":"39.6529870","lng":"66.9514830","city_id":107,"region_id":9,"typeName":"Улица"},{"id":"zn-10515","uId":"107-10515","parents":"Самаркандская область &raquo; Самарканд &raquo; Улица","name":"Мухсина Хайдарова","type_id":3,"lat":"39.6421190","lng":"66.9818370","city_id":107,"region_id":9,"typeName":"Улица"}]},"Н":{"name":"Н","count":1,"items":[{"id":"zn-10524","uId":"107-10524","parents":"Самаркандская область &raquo; Самарканд &raquo; Улица","name":"Нора Якубова","type_id":3,"lat":"39.6338190","lng":"66.9571600","city_id":107,"region_id":9,"typeName":"Улица"}]},"Р":{"name":"Р","count":2,"items":[{"id":"zn-10521","uId":"107-10521","parents":"Самаркандская область &raquo; Самарканд &raquo; Улица","name":"6-й тупик Рудаки","type_id":3,"lat":"39.6679360","lng":"66.9682460","city_id":107,"region_id":9,"typeName":"Улица"},{"id":"zn-10536","uId":"107-10536","parents":"Самаркандская область &raquo; Самарканд &raquo; Улица","name":"Регистанская","type_id":3,"lat":"39.6530710","lng":"66.9723420","city_id":107,"region_id":9,"typeName":"Улица"}]},"С":{"name":"С","count":3,"items":[{"id":"zn-10517","uId":"107-10517","parents":"Самаркандская область &raquo; Самарканд &raquo; Улица","name":"1-й проезд Сузонгарон","type_id":3,"lat":"39.6511470","lng":"66.9786030","city_id":107,"region_id":9,"typeName":"Улица"},{"id":"zn-4218","uId":"107-4218","parents":"Самаркандская область &raquo; Самарканд &raquo; Улица","name":"проспект Спитамена","type_id":3,"lat":"39.6793900","lng":"66.9064770","city_id":107,"region_id":9,"typeName":"Улица"},{"id":"zn-13339","uId":"107-13339","parents":"Самаркандская область &raquo; Самарканд &raquo; Улица","name":"Сулеймана Бухари","type_id":3,"lat":"39.6497720","lng":"66.9122360","city_id":107,"region_id":9,"typeName":"Улица"}]},"У":{"name":"У","count":2,"items":[{"id":"zn-10529","uId":"107-10529","parents":"Самаркандская область &raquo; Самарканд &raquo; Улица","name":"Узбекистанская","type_id":3,"lat":"39.6419450","lng":"66.9453480","city_id":107,"region_id":9,"typeName":"Улица"},{"id":"zn-10526","uId":"107-10526","parents":"Самаркандская область &raquo; Самарканд &raquo; Улица","name":"Усто Джалола Джураева","type_id":3,"lat":"39.6339650","lng":"66.9483930","city_id":107,"region_id":9,"typeName":"Улица"}]},"Х":{"name":"Х","count":1,"items":[{"id":"zn-10542","uId":"107-10542","parents":"Самаркандская область &raquo; Самарканд &raquo; Улица","name":"Ходжи Мумина","type_id":3,"lat":"39.6524390","lng":"66.9367060","city_id":107,"region_id":9,"typeName":"Улица"}]},"Ш":{"name":"Ш","count":1,"items":[{"id":"zn-4208","uId":"107-4208","parents":"Самаркандская область &raquo; Самарканд &raquo; Улица","name":"Шахруха Мирзы","type_id":3,"lat":"39.6508350","lng":"66.9606820","city_id":107,"region_id":9,"typeName":"Улица"}]}}},"z-60":{"name":"Село","count":88,"letterTabs":["А","Б","В","Г","Д","З","И","К","Л","М","Н","О","П","С","Т","У","Ф","Х","Ч","Ш","Я"],"letters":{"А":{"name":"А","count":7,"items":[{"id":"zn-2725","uId":"93-2725","parents":"Самаркандская область &raquo; Акдарьинский район","name":"Авазали","type_id":7,"lat":"39.8543160","lng":"66.6467740","city_id":93,"region_id":9,"typeName":"Село"},{"id":"zn-2782","uId":"102-2782","parents":"Самаркандская область &raquo; Пастдаргомский район","name":"Агран","type_id":7,"lat":"39.6873580","lng":"66.7308210","city_id":102,"region_id":9,"typeName":"Село"},{"id":"zn-2795","uId":"105-2795","parents":"Самаркандская область &raquo; Тайлакский район","name":"Адас","type_id":7,"lat":"39.5592210","lng":"67.1323770","city_id":105,"region_id":9,"typeName":"Село"},{"id":"zn-2741","uId":"96-2741","parents":"Самаркандская область &raquo; Иштыханский район","name":"Адил","type_id":7,"lat":"39.9817010","lng":"66.6656750","city_id":96,"region_id":9,"typeName":"Село"},{"id":"zn-2746","uId":"96-2746","parents":"Самаркандская область &raquo; Иштыханский район","name":"Азамат","type_id":7,"lat":"39.9409090","lng":"66.3906470","city_id":96,"region_id":9,"typeName":"Село"},{"id":"zn-2728","uId":"93-2728","parents":"Самаркандская область &raquo; Акдарьинский район","name":"Акдарё","type_id":7,"lat":"39.8371300","lng":"66.7523890","city_id":93,"region_id":9,"typeName":"Село"},{"id":"zn-2772","uId":"101-2772","parents":"Самаркандская область &raquo; Пайарыкский район","name":"Аккурган","type_id":7,"lat":"39.8483750","lng":"66.9786750","city_id":101,"region_id":9,"typeName":"Село"}]},"Б":{"name":"Б","count":4,"items":[{"id":"zn-2731","uId":"94-2731","parents":"Самаркандская область &raquo; Булунгурский район","name":"Багбан","type_id":7,"lat":"39.7867780","lng":"67.2497960","city_id":94,"region_id":9,"typeName":"Село"},{"id":"zn-2727","uId":"93-2727","parents":"Самаркандская область &raquo; Акдарьинский район","name":"Балта","type_id":7,"lat":"39.9321060","lng":"66.7306680","city_id":93,"region_id":9,"typeName":"Село"},{"id":"zn-2779","uId":"102-2779","parents":"Самаркандская область &raquo; Пастдаргомский район","name":"Балхиён","type_id":7,"lat":"39.6891560","lng":"66.8390860","city_id":102,"region_id":9,"typeName":"Село"},{"id":"zn-2796","uId":"105-2796","parents":"Самаркандская область &raquo; Тайлакский район","name":"Богизаган","type_id":7,"lat":"39.5760610","lng":"67.1759540","city_id":105,"region_id":9,"typeName":"Село"}]},"В":{"name":"В","count":1,"items":[{"id":"zn-2756","uId":"97-2756","parents":"Самаркандская область &raquo; Каттакурганский район","name":"Вайрат","type_id":7,"lat":"40.0111880","lng":"66.0595370","city_id":97,"region_id":9,"typeName":"Село"}]},"Г":{"name":"Г","count":6,"items":[{"id":"zn-2735","uId":"95-2735","parents":"Самаркандская область &raquo; Джамбайский район","name":"Газира","type_id":7,"lat":"39.8157890","lng":"67.1112930","city_id":95,"region_id":9,"typeName":"Село"},{"id":"zn-2780","uId":"102-2780","parents":"Самаркандская область &raquo; Пастдаргомский район","name":"Гузалкент","type_id":7,"lat":"39.7575320","lng":"66.5797510","city_id":102,"region_id":9,"typeName":"Село"},{"id":"zn-2762","uId":"99-2762","parents":"Самаркандская область &raquo; Нарпайский район","name":"Гулистан","type_id":7,"lat":"40.4851990","lng":"71.9238830","city_id":99,"region_id":9,"typeName":"Село"},{"id":"zn-2769","uId":"101-2769","parents":"Самаркандская область &raquo; Пайарыкский район","name":"Гулистан","type_id":7,"lat":"40.2242750","lng":"68.8434160","city_id":101,"region_id":9,"typeName":"Село"},{"id":"zn-2802","uId":"106-2802","parents":"Самаркандская область &raquo; Ургутский район","name":"Гус","type_id":7,"lat":"39.3923520","lng":"67.3071710","city_id":106,"region_id":9,"typeName":"Село"},{"id":"zn-2792","uId":"104-2792","parents":"Самаркандская область &raquo; Самаркандский район","name":"Гюлабад","type_id":7,"lat":"39.5825670","lng":"66.9564690","city_id":104,"region_id":9,"typeName":"Село"}]},"Д":{"name":"Д","count":7,"items":[{"id":"zn-2742","uId":"96-2742","parents":"Самаркандская область &raquo; Иштыханский район","name":"Дамарик","type_id":7,"lat":"40.0186140","lng":"66.4672370","city_id":96,"region_id":9,"typeName":"Село"},{"id":"zn-2719","uId":"93-2719","parents":"Самаркандская область &raquo; Акдарьинский район","name":"Дахбед","type_id":7,"lat":"39.7638480","lng":"66.9169070","city_id":93,"region_id":9,"typeName":"Село"},{"id":"zn-2732","uId":"95-2732","parents":"Самаркандская область &raquo; Джамбайский район","name":"Дехканабад","type_id":7,"lat":"39.6455640","lng":"67.1068920","city_id":95,"region_id":9,"typeName":"Село"},{"id":"zn-2771","uId":"101-2771","parents":"Самаркандская область &raquo; Пайарыкский район","name":"Дехконабад","type_id":7,"lat":"39.7256240","lng":"67.1338230","city_id":101,"region_id":9,"typeName":"Село"},{"id":"zn-2776","uId":"102-2776","parents":"Самаркандская область &raquo; Пастдаргомский район","name":"Джагалбайли","type_id":7,"lat":"39.7159610","lng":"66.7603570","city_id":102,"region_id":9,"typeName":"Село"},{"id":"zn-2797","uId":"106-2797","parents":"Самаркандская область &raquo; Ургутский район","name":"Джартепа","type_id":7,"lat":"37.4579250","lng":"67.0068370","city_id":106,"region_id":9,"typeName":"Село"},{"id":"zn-2765","uId":"101-2765","parents":"Самаркандская область &raquo; Пайарыкский район","name":"Дустларабад","type_id":7,"lat":"39.9062990","lng":"66.8974040","city_id":101,"region_id":9,"typeName":"Село"}]},"З":{"name":"З","count":2,"items":[{"id":"zn-2759","uId":"98-2759","parents":"Самаркандская область &raquo; Кошрабадский район","name":"Заркент","type_id":7,"lat":"40.5002670","lng":"71.8289580","city_id":98,"region_id":9,"typeName":"Село"},{"id":"zn-2785","uId":"103-2785","parents":"Самаркандская область &raquo; Пахтачийский район","name":"Зиявуддин","type_id":7,"lat":"40.0283100","lng":"65.6637300","city_id":103,"region_id":9,"typeName":"Село"}]},"И":{"name":"И","count":3,"items":[{"id":"zn-2749","uId":"97-2749","parents":"Самаркандская область &raquo; Каттакурганский район","name":"Ингичка","type_id":7,"lat":"39.7374160","lng":"65.9945350","city_id":97,"region_id":9,"typeName":"Село"},{"id":"zn-2783","uId":"102-2783","parents":"Самаркандская область &raquo; Пастдаргомский район","name":"Искандари","type_id":7,"lat":"39.6894540","lng":"66.7613100","city_id":102,"region_id":9,"typeName":"Село"},{"id":"zn-2799","uId":"106-2799","parents":"Самаркандская область &raquo; Ургутский район","name":"Испанза","type_id":7,"lat":"39.4083190","lng":"67.2755500","city_id":106,"region_id":9,"typeName":"Село"}]},"К":{"name":"К","count":14,"items":[{"id":"zn-2744","uId":"96-2744","parents":"Самаркандская область &raquo; Иштыханский район","name":"К.Беканов","type_id":7,"lat":null,"lng":null,"city_id":96,"region_id":9,"typeName":"Село"},{"id":"zn-2786","uId":"103-2786","parents":"Самаркандская область &raquo; Пахтачийский район","name":"Кадирист","type_id":7,"lat":null,"lng":null,"city_id":103,"region_id":9,"typeName":"Село"},{"id":"zn-2801","uId":"106-2801","parents":"Самаркандская область &raquo; Ургутский район","name":"Камангардон","type_id":7,"lat":null,"lng":null,"city_id":106,"region_id":9,"typeName":"Село"},{"id":"zn-2752","uId":"97-2752","parents":"Самаркандская область &raquo; Каттакурганский район","name":"Карадарья","type_id":7,"lat":"39.9347890","lng":"66.2491170","city_id":97,"region_id":9,"typeName":"Село"},{"id":"zn-2768","uId":"101-2768","parents":"Самаркандская область &raquo; Пайарыкский район","name":"Карасув","type_id":7,"lat":null,"lng":null,"city_id":101,"region_id":9,"typeName":"Село"},{"id":"zn-2736","uId":"95-2736","parents":"Самаркандская область &raquo; Джамбайский район","name":"Катта кишлак","type_id":7,"lat":"39.7180560","lng":"67.0804900","city_id":95,"region_id":9,"typeName":"Село"},{"id":"zn-2755","uId":"97-2755","parents":"Самаркандская область &raquo; Каттакурганский район","name":"Каттаминг","type_id":7,"lat":"39.9650650","lng":"66.1134900","city_id":97,"region_id":9,"typeName":"Село"},{"id":"zn-2798","uId":"106-2798","parents":"Самаркандская область &raquo; Ургутский район","name":"Кенагас","type_id":7,"lat":"39.4669010","lng":"67.0429230","city_id":106,"region_id":9,"typeName":"Село"},{"id":"zn-2730","uId":"94-2730","parents":"Самаркандская область &raquo; Булунгурский район","name":"Килдон","type_id":7,"lat":"39.6436680","lng":"67.3541350","city_id":94,"region_id":9,"typeName":"Село"},{"id":"zn-2804","uId":"107-2804","parents":"Самаркандская область &raquo; Самарканд","name":"Кимёгарлар","type_id":7,"lat":"39.6647840","lng":"66.8444040","city_id":107,"region_id":9,"typeName":"Село"},{"id":"zn-2726","uId":"93-2726","parents":"Самаркандская область &raquo; Акдарьинский район","name":"Киркдархан","type_id":7,"lat":"39.7390940","lng":"66.9752430","city_id":93,"region_id":9,"typeName":"Село"},{"id":"zn-2747","uId":"96-2747","parents":"Самаркандская область &raquo; Иштыханский район","name":"Киркйигит","type_id":7,"lat":"39.9641380","lng":"66.4341340","city_id":96,"region_id":9,"typeName":"Село"},{"id":"zn-2758","uId":"98-2758","parents":"Самаркандская область &raquo; Кошрабадский район","name":"Кошрабад","type_id":7,"lat":"40.2366200","lng":"66.6539880","city_id":98,"region_id":9,"typeName":"Село"},{"id":"zn-2723","uId":"93-2723","parents":"Самаркандская область &raquo; Акдарьинский район","name":"Кумушкен","type_id":7,"lat":"39.8160800","lng":"66.8539080","city_id":93,"region_id":9,"typeName":"Село"}]},"Л":{"name":"Л","count":1,"items":[{"id":"zn-2720","uId":"93-2720","parents":"Самаркандская область &raquo; Акдарьинский район","name":"Лаиш","type_id":7,"lat":"39.8791740","lng":"66.7519850","city_id":93,"region_id":9,"typeName":"Село"}]},"М":{"name":"М","count":4,"items":[{"id":"zn-2774","uId":"102-2774","parents":"Самаркандская область &raquo; Пастдаргомский район","name":"Мехнат","type_id":7,"lat":"40.8107630","lng":"72.2035820","city_id":102,"region_id":9,"typeName":"Село"},{"id":"zn-2760","uId":"99-2760","parents":"Самаркандская область &raquo; Нарпайский район","name":"Мирбазар","type_id":7,"lat":"39.9614700","lng":"65.9361890","city_id":99,"region_id":9,"typeName":"Село"},{"id":"zn-2737","uId":"96-2737","parents":"Самаркандская область &raquo; Иштыханский район","name":"Митан","type_id":7,"lat":"40.0080250","lng":"66.5470790","city_id":96,"region_id":9,"typeName":"Село"},{"id":"zn-2753","uId":"97-2753","parents":"Самаркандская область &raquo; Каттакурганский район","name":"Мундиян","type_id":7,"lat":"39.9985120","lng":"66.2071930","city_id":97,"region_id":9,"typeName":"Село"}]},"Н":{"name":"Н","count":2,"items":[{"id":"zn-2781","uId":"102-2781","parents":"Самаркандская область &raquo; Пастдаргомский район","name":"Найман","type_id":7,"lat":"39.6941320","lng":"66.8860230","city_id":102,"region_id":9,"typeName":"Село"},{"id":"zn-2763","uId":"100-2763","parents":"Самаркандская область &raquo; Нурабадский район","name":"Нурбулак","type_id":7,"lat":"39.7449540","lng":"66.4039330","city_id":100,"region_id":9,"typeName":"Село"}]},"О":{"name":"О","count":1,"items":[{"id":"zn-2724","uId":"93-2724","parents":"Самаркандская область &raquo; Акдарьинский район","name":"Ойтамгали","type_id":7,"lat":"39.9105190","lng":"66.6276310","city_id":93,"region_id":9,"typeName":"Село"}]},"П":{"name":"П","count":4,"items":[{"id":"zn-2750","uId":"97-2750","parents":"Самаркандская область &raquo; Каттакурганский район","name":"Пайшанба","type_id":7,"lat":"40.0108570","lng":"66.2298840","city_id":97,"region_id":9,"typeName":"Село"},{"id":"zn-2754","uId":"97-2754","parents":"Самаркандская область &raquo; Каттакурганский район","name":"Палвантепа","type_id":7,"lat":"39.9262970","lng":"66.2497640","city_id":97,"region_id":9,"typeName":"Село"},{"id":"zn-2788","uId":"103-2788","parents":"Самаркандская область &raquo; Пахтачийский район","name":"Паст Буркут","type_id":7,"lat":"40.1061630","lng":"65.5081870","city_id":103,"region_id":9,"typeName":"Село"},{"id":"zn-2803","uId":"106-2803","parents":"Самаркандская область &raquo; Ургутский район","name":"Почвон","type_id":7,"lat":"39.4696230","lng":"67.2754780","city_id":106,"region_id":9,"typeName":"Село"}]},"С":{"name":"С","count":7,"items":[{"id":"zn-2789","uId":"103-2789","parents":"Самаркандская область &raquo; Пахтачийский район","name":"Санчикул","type_id":7,"lat":"40.1061630","lng":"65.5081870","city_id":103,"region_id":9,"typeName":"Село"},{"id":"zn-2784","uId":"102-2784","parents":"Самаркандская область &raquo; Пастдаргомский район","name":"Сарибаш","type_id":7,"lat":null,"lng":null,"city_id":102,"region_id":9,"typeName":"Село"},{"id":"zn-2729","uId":"94-2729","parents":"Самаркандская область &raquo; Булунгурский район","name":"Сахибкар","type_id":7,"lat":"39.6383200","lng":"66.9441710","city_id":94,"region_id":9,"typeName":"Село"},{"id":"zn-2733","uId":"95-2733","parents":"Самаркандская область &raquo; Джамбайский район","name":"Старий Джомбой","type_id":7,"lat":"39.6820350","lng":"67.1655340","city_id":95,"region_id":9,"typeName":"Село"},{"id":"zn-2751","uId":"97-2751","parents":"Самаркандская область &raquo; Каттакурганский район","name":"Сув-Ховузи","type_id":7,"lat":"39.8594880","lng":"66.2687270","city_id":97,"region_id":9,"typeName":"Село"},{"id":"zn-2745","uId":"96-2745","parents":"Самаркандская область &raquo; Иштыханский район","name":"Сугот","type_id":7,"lat":"39.9263520","lng":"66.4975820","city_id":96,"region_id":9,"typeName":"Село"},{"id":"zn-2790","uId":"103-2790","parents":"Самаркандская область &raquo; Пахтачийский район","name":"Сулувкурган","type_id":7,"lat":"40.0788560","lng":"65.6309240","city_id":103,"region_id":9,"typeName":"Село"}]},"Т":{"name":"Т","count":3,"items":[{"id":"zn-2794","uId":"105-2794","parents":"Самаркандская область &raquo; Тайлакский район","name":"Тайлак","type_id":7,"lat":"39.5986220","lng":"67.0931650","city_id":105,"region_id":9,"typeName":"Село"},{"id":"zn-2767","uId":"101-2767","parents":"Самаркандская область &raquo; Пайарыкский район","name":"Тамайрот","type_id":7,"lat":"39.8665760","lng":"66.8736440","city_id":101,"region_id":9,"typeName":"Село"},{"id":"zn-2770","uId":"101-2770","parents":"Самаркандская область &raquo; Пайарыкский район","name":"Тупалос","type_id":7,"lat":"39.8709930","lng":"66.9573850","city_id":101,"region_id":9,"typeName":"Село"}]},"У":{"name":"У","count":3,"items":[{"id":"zn-2800","uId":"106-2800","parents":"Самаркандская область &raquo; Ургутский район","name":"Урамас","type_id":7,"lat":"39.4859900","lng":"67.2508650","city_id":106,"region_id":9,"typeName":"Село"},{"id":"zn-2791","uId":"103-2791","parents":"Самаркандская область &raquo; Пахтачийский район","name":"Ургич","type_id":7,"lat":"39.9721700","lng":"65.7794510","city_id":103,"region_id":9,"typeName":"Село"},{"id":"zn-2778","uId":"102-2778","parents":"Самаркандская область &raquo; Пастдаргомский район","name":"Урта Чархин","type_id":7,"lat":"39.7130820","lng":"66.8030180","city_id":102,"region_id":9,"typeName":"Село"}]},"Ф":{"name":"Ф","count":1,"items":[{"id":"zn-2805","uId":"107-2805","parents":"Самаркандская область &raquo; Самарканд","name":"Фархад","type_id":7,"lat":"39.6942980","lng":"67.0608260","city_id":107,"region_id":9,"typeName":"Село"}]},"Х":{"name":"Х","count":8,"items":[{"id":"zn-2739","uId":"96-2739","parents":"Самаркандская область &raquo; Иштыханский район","name":"Халкабад","type_id":7,"lat":"39.9432530","lng":"66.5498460","city_id":96,"region_id":9,"typeName":"Село"},{"id":"zn-2766","uId":"101-2766","parents":"Самаркандская область &raquo; Пайарыкский район","name":"Халкабад","type_id":7,"lat":"39.9432530","lng":"66.5498460","city_id":101,"region_id":9,"typeName":"Село"},{"id":"zn-2777","uId":"102-2777","parents":"Самаркандская область &raquo; Пастдаргомский район","name":"Хиндибойи","type_id":7,"lat":null,"lng":null,"city_id":102,"region_id":9,"typeName":"Село"},{"id":"zn-2806","uId":"107-2806","parents":"Самаркандская область &raquo; Самарканд","name":"Хишрав","type_id":7,"lat":"39.6369450","lng":"66.8883310","city_id":107,"region_id":9,"typeName":"Село"},{"id":"zn-2793","uId":"104-2793","parents":"Самаркандская область &raquo; Самаркандский район","name":"Худжа Ахрар Вали","type_id":7,"lat":null,"lng":null,"city_id":104,"region_id":9,"typeName":"Село"},{"id":"zn-2764","uId":"101-2764","parents":"Самаркандская область &raquo; Пайарыкский район","name":"Хужа Исмоил","type_id":7,"lat":"39.8165440","lng":"66.9487700","city_id":101,"region_id":9,"typeName":"Село"},{"id":"zn-2734","uId":"95-2734","parents":"Самаркандская область &raquo; Джамбайский район","name":"Хужа","type_id":7,"lat":null,"lng":null,"city_id":95,"region_id":9,"typeName":"Село"},{"id":"zn-2787","uId":"103-2787","parents":"Самаркандская область &raquo; Пахтачийский район","name":"Хумар","type_id":7,"lat":"39.9918380","lng":"65.7446050","city_id":103,"region_id":9,"typeName":"Село"}]},"Ч":{"name":"Ч","count":3,"items":[{"id":"zn-2773","uId":"102-2773","parents":"Самаркандская область &raquo; Пастдаргомский район","name":"Чархин ","type_id":7,"lat":"39.7130820","lng":"66.8030180","city_id":102,"region_id":9,"typeName":"Село"},{"id":"zn-2761","uId":"99-2761","parents":"Самаркандская область &raquo; Нарпайский район","name":"Чархин","type_id":7,"lat":"39.7130820","lng":"66.8030180","city_id":99,"region_id":9,"typeName":"Село"},{"id":"zn-2775","uId":"102-2775","parents":"Самаркандская область &raquo; Пастдаргомский район","name":"Чортут","type_id":7,"lat":"39.6986980","lng":"66.8531980","city_id":102,"region_id":9,"typeName":"Село"}]},"Ш":{"name":"Ш","count":2,"items":[{"id":"zn-2743","uId":"96-2743","parents":"Самаркандская область &raquo; Иштыханский район","name":"Шайхислом","type_id":7,"lat":"40.0089090","lng":"66.4833080","city_id":96,"region_id":9,"typeName":"Село"},{"id":"zn-2738","uId":"96-2738","parents":"Самаркандская область &raquo; Иштыханский район","name":"Шейхлар","type_id":7,"lat":"39.9031160","lng":"66.5487410","city_id":96,"region_id":9,"typeName":"Село"}]},"Я":{"name":"Я","count":5,"items":[{"id":"zn-2721","uId":"93-2721","parents":"Самаркандская область &raquo; Акдарьинский район","name":"Янгиабад","type_id":7,"lat":"39.8827170","lng":"66.7124410","city_id":93,"region_id":9,"typeName":"Село"},{"id":"zn-2740","uId":"96-2740","parents":"Самаркандская область &raquo; Иштыханский район","name":"Янгикент","type_id":7,"lat":"38.7046240","lng":"66.0604440","city_id":96,"region_id":9,"typeName":"Село"},{"id":"zn-2722","uId":"93-2722","parents":"Самаркандская область &raquo; Акдарьинский район","name":"Янгикурган","type_id":7,"lat":"39.9313180","lng":"66.6531880","city_id":93,"region_id":9,"typeName":"Село"},{"id":"zn-2757","uId":"97-2757","parents":"Самаркандская область &raquo; Каттакурганский район","name":"Янгикурганча","type_id":7,"lat":"39.9087410","lng":"66.3849690","city_id":97,"region_id":9,"typeName":"Село"},{"id":"zn-2748","uId":"96-2748","parents":"Самаркандская область &raquo; Иштыханский район","name":"Янгирабат","type_id":7,"lat":null,"lng":null,"city_id":96,"region_id":9,"typeName":"Село"}]}}},"z-70":{"name":"Город","count":11,"letterTabs":[" ","А","Б","Д","И","К","Н","П","У","Ч"],"letters":{" ":{"name":" ","count":1,"items":[{"id":"zn-3298","uId":"97-3298","parents":"Самаркандская область &raquo; Каттакурганский район &raquo; Город","name":"город Каттакурган","type_id":8,"lat":"39.9035040","lng":"66.2650350","city_id":97,"region_id":9,"typeName":"Город"}]},"А":{"name":"А","count":1,"items":[{"id":"zn-3355","uId":"99-3355","parents":"Самаркандская область &raquo; Нарпайский район &raquo; Город","name":"Акташ","type_id":8,"lat":"39.9216350","lng":"65.9253550","city_id":99,"region_id":9,"typeName":"Город"}]},"Б":{"name":"Б","count":1,"items":[{"id":"zn-3356","uId":"94-3356","parents":"Самаркандская область &raquo; Булунгурский район &raquo; Город","name":"Булунгур","type_id":8,"lat":"39.7629470","lng":"67.2729000","city_id":94,"region_id":9,"typeName":"Город"}]},"Д":{"name":"Д","count":2,"items":[{"id":"zn-3357","uId":"95-3357","parents":"Самаркандская область &raquo; Джамбайский район &raquo; Город","name":"Джамбай","type_id":8,"lat":"39.6969700","lng":"67.0964710","city_id":95,"region_id":9,"typeName":"Город"},{"id":"zn-3358","uId":"102-3358","parents":"Самаркандская область &raquo; Пастдаргомский район &raquo; Город","name":"Джума","type_id":8,"lat":"39.7150730","lng":"66.6613810","city_id":102,"region_id":9,"typeName":"Город"}]},"И":{"name":"И","count":1,"items":[{"id":"zn-3359","uId":"96-3359","parents":"Самаркандская область &raquo; Иштыханский район &raquo; Город","name":"Иштыхан","type_id":8,"lat":"39.9648570","lng":"66.4872520","city_id":96,"region_id":9,"typeName":"Город"}]},"К":{"name":"К","count":1,"items":[{"id":"zn-3360","uId":"104-3360","parents":"Самаркандская область &raquo; Самаркандский район &raquo; Город","name":"Каттакурган","type_id":8,"lat":"39.9354250","lng":"66.3086400","city_id":104,"region_id":9,"typeName":"Город"}]},"Н":{"name":"Н","count":1,"items":[{"id":"zn-3361","uId":"100-3361","parents":"Самаркандская область &raquo; Нурабадский район &raquo; Город","name":"Нурабад","type_id":8,"lat":"39.6082950","lng":"66.2832890","city_id":100,"region_id":9,"typeName":"Город"}]},"П":{"name":"П","count":1,"items":[{"id":"zn-3362","uId":"101-3362","parents":"Самаркандская область &raquo; Пайарыкский район &raquo; Город","name":"Пайарык","type_id":8,"lat":"39.9900410","lng":"66.8463530","city_id":101,"region_id":9,"typeName":"Город"}]},"У":{"name":"У","count":1,"items":[{"id":"zn-3363","uId":"106-3363","parents":"Самаркандская область &raquo; Ургутский район &raquo; Город","name":"Ургут","type_id":8,"lat":"39.4088140","lng":"67.2433910","city_id":106,"region_id":9,"typeName":"Город"}]},"Ч":{"name":"Ч","count":1,"items":[{"id":"zn-3364","uId":"101-3364","parents":"Самаркандская область &raquo; Пайарыкский район &raquo; Город","name":"Челек","type_id":8,"lat":"39.9203340","lng":"66.8584540","city_id":101,"region_id":9,"typeName":"Город"}]}}}},"errorMethod":null,"errors":null,"messages":null,"success":true,"statusCode":200,"apiVersionCode":2,"apiVersionName":"0.02","controllerAction":"LocationController@getCitiesAndZonesGroupedByType","productCode":"uybor","request":{"method":"GET","data":[],"user_id":null}}