{
  "data": {
    "cities": {
      "name": "Район",
      "count": 11,
      "letters": {
        "1": {
          "items": [
            {
              "id": "ct-201",
              "uId": 201,
              "parents": "город Ташкент &raquo; Город",
              "name": "Бектемирский район",
              "lat": "41.2332730",
              "lng": "69.3346960",
              "region_id": 13
            },
            {
              "id": "ct-204",
              "uId": 204,
              "parents": "город Ташкент &raquo; Город",
              "name": "Мирабадский район",
              "lat": "41.2925620",
              "lng": "69.2856830",
              "region_id": 13
            },
            {
              "id": "ct-196",
              "uId": 196,
              "parents": "город Ташкент &raquo; Город",
              "name": "Мирзо-Улугбекский район",
              "lat": "41.3262130",
              "lng": "69.3269160",
              "region_id": 13
            },
            {
              "id": "ct-199",
              "uId": 199,
              "parents": "город Ташкент &raquo; Город",
              "name": "Олмазорский район",
              "lat": "41.3543500",
              "lng": "69.2233580",
              "region_id": 13
            },
            {
              "id": "ct-206",
              "uId": 206,
              "parents": "город Ташкент &raquo; Город",
              "name": "Сергелийский район",
              "lat": "41.2098320",
              "lng": "69.2315060",
              "region_id": 13
            },
            {
              "id": "ct-203",
              "uId": 203,
              "parents": "город Ташкент &raquo; Город",
              "name": "Учтепинский район",
              "lat": "41.2959910",
              "lng": "69.1751910",
              "region_id": 13
            },
            {
              "id": "ct-202",
              "uId": 202,
              "parents": "город Ташкент &raquo; Город",
              "name": "Чиланзарский район",
              "lat": "41.2814100",
              "lng": "69.2126680",
              "region_id": 13
            },
            {
              "id": "ct-198",
              "uId": 198,
              "parents": "город Ташкент &raquo; Город",
              "name": "Шайхантахурский район",
              "lat": "41.3176460",
              "lng": "69.2305810",
              "region_id": 13
            },
            {
              "id": "ct-197",
              "uId": 197,
              "parents": "город Ташкент &raquo; Город",
              "name": "Юнусабадский район",
              "lat": "41.3646570",
              "lng": "69.2876960",
              "region_id": 13
            },
            {
              "id": "ct-205",
              "uId": 205,
              "parents": "город Ташкент &raquo; Город",
              "name": "Яккасарайский район",
              "lat": "41.2860040",
              "lng": "69.2537480",
              "region_id": 13
            },
            {
              "id": "ct-200",
              "uId": 200,
              "parents": "город Ташкент &raquo; Город",
              "name": "Яшнободский район",
              "lat": "41.2834630",
              "lng": "69.3397890",
              "region_id": 13
            }
          ]
        }
      },
      "letterTabs": [
        1
      ]
    },
    "z-10": {
      "name": "Массив",
      "count": 137,
      "letterTabs": [
        "А",
        "Б",
        "В",
        "Г",
        "Д",
        "Ж",
        "И",
        "К",
        "Л",
        "М",
        "О",
        "П",
        "Р",
        "С",
        "Т",
        "У",
        "Ф",
        "Х",
        "Ц",
        "Ч",
        "Ш",
        "Я"
      ],
      "letters": {
        "А": {
          "name": "А",
          "count": 12,
          "items": [
            {
              "id": "zn-2120",
              "uId": "198-2120",
              "parents": "город Ташкент &raquo; Шайхантахурский район &raquo; Массив",
              "name": "Абу Али ибн Сино-1 (Ибн Сино)",
              "type_id": 4,
              "lat": "41.3341960",
              "lng": "69.1680850",
              "city_id": 198,
              "region_id": 13,
              "typeName": "Массив"
            },
            {
              "id": "zn-2121",
              "uId": "198-2121",
              "parents": "город Ташкент &raquo; Шайхантахурский район &raquo; Массив",
              "name": "Абу Али ибн Сино-2",
              "type_id": 4,
              "lat": "41.3382990",
              "lng": "69.1697470",
              "city_id": 198,
              "region_id": 13,
              "typeName": "Массив"
            },
            {
              "id": "zn-3405",
              "uId": "198-3405",
              "parents": "город Ташкент &raquo; Шайхантахурский район &raquo; Массив",
              "name": "Абу Али ибн Сино (Ибн Сино)",
              "type_id": 4,
              "lat": "41.3341960",
              "lng": "69.1680850",
              "city_id": 198,
              "region_id": 13,
              "typeName": "Массив"
            },
            {
              "id": "zn-2063",
              "uId": "196-2063",
              "parents": "город Ташкент &raquo; Мирзо-Улугбекский район &raquo; Массив",
              "name": "Академгородок",
              "type_id": 4,
              "lat": "41.3396130",
              "lng": "69.3397930",
              "city_id": 196,
              "region_id": 13,
              "typeName": "Массив"
            },
            {
              "id": "zn-2125",
              "uId": "198-2125",
              "parents": "город Ташкент &raquo; Шайхантахурский район &raquo; Массив",
              "name": "Аклан",
              "type_id": 4,
              "lat": "41.3180250",
              "lng": "69.2116710",
              "city_id": 198,
              "region_id": 13,
              "typeName": "Массив"
            },
            {
              "id": "zn-2126",
              "uId": "198-2126",
              "parents": "город Ташкент &raquo; Шайхантахурский район &raquo; Массив",
              "name": "Актепа",
              "type_id": 4,
              "lat": "41.3033070",
              "lng": "69.2145730",
              "city_id": 198,
              "region_id": 13,
              "typeName": "Массив"
            },
            {
              "id": "zn-2127",
              "uId": "203-2127",
              "parents": "город Ташкент &raquo; Учтепинский район &raquo; Массив",
              "name": "Актепа",
              "type_id": 4,
              "lat": "41.3033070",
              "lng": "69.2145730",
              "city_id": 203,
              "region_id": 13,
              "typeName": "Массив"
            },
            {
              "id": "zn-2133",
              "uId": "203-2133",
              "parents": "город Ташкент &raquo; Учтепинский район &raquo; Массив",
              "name": "Ал-Хорезми-2 (Алгоритм)",
              "type_id": 4,
              "lat": "41.2617890",
              "lng": "69.1591200",
              "city_id": 203,
              "region_id": 13,
              "typeName": "Массив"
            },
            {
              "id": "zn-2153",
              "uId": "200-2153",
              "parents": "город Ташкент &raquo; Яшнободский район &raquo; Массив",
              "name": "Асалабад-1",
              "type_id": 4,
              "lat": "41.2816400",
              "lng": "69.3392140",
              "city_id": 200,
              "region_id": 13,
              "typeName": "Массив"
            },
            {
              "id": "zn-2154",
              "uId": "200-2154",
              "parents": "город Ташкент &raquo; Яшнободский район &raquo; Массив",
              "name": "Асалабад-2",
              "type_id": 4,
              "lat": "41.2826020",
              "lng": "69.3357650",
              "city_id": 200,
              "region_id": 13,
              "typeName": "Массив"
            },
            {
              "id": "zn-3406",
              "uId": "200-3406",
              "parents": "город Ташкент &raquo; Яшнободский район &raquo; Массив",
              "name": "Асалабад",
              "type_id": 4,
              "lat": "41.2816400",
              "lng": "69.3392140",
              "city_id": 200,
              "region_id": 13,
              "typeName": "Массив"
            },
            {
              "id": "zn-2052",
              "uId": "196-2052",
              "parents": "город Ташкент &raquo; Мирзо-Улугбекский район &raquo; Массив",
              "name": "Ахмад Югнаки",
              "type_id": 4,
              "lat": "41.3512630",
              "lng": "69.3917300",
              "city_id": 196,
              "region_id": 13,
              "typeName": "Массив"
            }
          ]
        },
        "Б": {
          "name": "Б",
          "count": 16,
          "items": [
            {
              "id": "zn-2207",
              "uId": "205-2207",
              "parents": "город Ташкент &raquo; Яккасарайский район &raquo; Массив",
              "name": "Башлык",
              "type_id": 4,
              "lat": "41.2695300",
              "lng": "69.2517000",
              "city_id": 205,
              "region_id": 13,
              "typeName": "Массив"
            },
            {
              "id": "zn-2128",
              "uId": "203-2128",
              "parents": "город Ташкент &raquo; Учтепинский район &raquo; Массив",
              "name": "Бекабад",
              "type_id": 4,
              "lat": null,
              "lng": null,
              "city_id": 203,
              "region_id": 13,
              "typeName": "Массив"
            },
            {
              "id": "zn-2119",
              "uId": "198-2119",
              "parents": "город Ташкент &raquo; Шайхантахурский район &raquo; Массив",
              "name": "Бельтепа",
              "type_id": 4,
              "lat": "41.3419210",
              "lng": "69.1712200",
              "city_id": 198,
              "region_id": 13,
              "typeName": "Массив"
            },
            {
              "id": "zn-2094",
              "uId": "199-2094",
              "parents": "город Ташкент &raquo; Олмазорский район &raquo; Массив",
              "name": "Беруни-3",
              "type_id": 4,
              "lat": "41.3388200",
              "lng": "69.2147610",
              "city_id": 199,
              "region_id": 13,
              "typeName": "Массив"
            },
            {
              "id": "zn-2115",
              "uId": "198-2115",
              "parents": "город Ташкент &raquo; Шайхантахурский район &raquo; Массив",
              "name": "Бешагач",
              "type_id": 4,
              "lat": "41.3100330",
              "lng": "69.2367520",
              "city_id": 198,
              "region_id": 13,
              "typeName": "Массив"
            },
            {
              "id": "zn-2129",
              "uId": "203-2129",
              "parents": "город Ташкент &raquo; Учтепинский район &raquo; Массив",
              "name": "Бешкайрагач",
              "type_id": 4,
              "lat": "41.3114560",
              "lng": "69.1647790",
              "city_id": 203,
              "region_id": 13,
              "typeName": "Массив"
            },
            {
              "id": "zn-2097",
              "uId": "199-2097",
              "parents": "город Ташкент &raquo; Олмазорский район &raquo; Массив",
              "name": "Бешкурган-1 (Тансикбаев)",
              "type_id": 4,
              "lat": "41.3696450",
              "lng": "69.2021940",
              "city_id": 199,
              "region_id": 13,
              "typeName": "Массив"
            },
            {
              "id": "zn-2098",
              "uId": "199-2098",
              "parents": "город Ташкент &raquo; Олмазорский район &raquo; Массив",
              "name": "Бешкурган-2 (Тансикбаев)",
              "type_id": 4,
              "lat": "41.3650430",
              "lng": "69.2011790",
              "city_id": 199,
              "region_id": 13,
              "typeName": "Массив"
            },
            {
              "id": "zn-2099",
              "uId": "199-2099",
              "parents": "город Ташкент &raquo; Олмазорский район &raquo; Массив",
              "name": "Бешкурган-3 (Тансикбаев)",
              "type_id": 4,
              "lat": "41.3672160",
              "lng": "69.1958970",
              "city_id": 199,
              "region_id": 13,
              "typeName": "Массив"
            },
            {
              "id": "zn-2100",
              "uId": "199-2100",
              "parents": "город Ташкент &raquo; Олмазорский район &raquo; Массив",
              "name": "Бешкурган-4 (Тансикбаев)",
              "type_id": 4,
              "lat": "41.3666740",
              "lng": "69.2011790",
              "city_id": 199,
              "region_id": 13,
              "typeName": "Массив"
            },
            {
              "id": "zn-3404",
              "uId": "199-3404",
              "parents": "город Ташкент &raquo; Олмазорский район &raquo; Массив",
              "name": "Бешкурган (Тансикбаев)",
              "type_id": 4,
              "lat": "41.3696450",
              "lng": "69.2021940",
              "city_id": 199,
              "region_id": 13,
              "typeName": "Массив"
            },
            {
              "id": "zn-2130",
              "uId": "203-2130",
              "parents": "город Ташкент &raquo; Учтепинский район &raquo; Массив",
              "name": "Бирлик",
              "type_id": 4,
              "lat": "41.2913290",
              "lng": "69.1732410",
              "city_id": 203,
              "region_id": 13,
              "typeName": "Массив"
            },
            {
              "id": "zn-2071",
              "uId": "197-2071",
              "parents": "город Ташкент &raquo; Юнусабадский район &raquo; Массив",
              "name": "Бодомзор",
              "type_id": 4,
              "lat": "41.3432550",
              "lng": "69.2941900",
              "city_id": 197,
              "region_id": 13,
              "typeName": "Массив"
            },
            {
              "id": "zn-2064",
              "uId": "196-2064",
              "parents": "город Ташкент &raquo; Мирзо-Улугбекский район &raquo; Массив",
              "name": "Буз-1 (Буз базар)",
              "type_id": 4,
              "lat": "41.3323880",
              "lng": "69.3303210",
              "city_id": 196,
              "region_id": 13,
              "typeName": "Массив"
            },
            {
              "id": "zn-2065",
              "uId": "196-2065",
              "parents": "город Ташкент &raquo; Мирзо-Улугбекский район &raquo; Массив",
              "name": "Буз-2 (Буз)",
              "type_id": 4,
              "lat": "41.3466400",
              "lng": "69.3525990",
              "city_id": 196,
              "region_id": 13,
              "typeName": "Массив"
            },
            {
              "id": "zn-2066",
              "uId": "196-2066",
              "parents": "город Ташкент &raquo; Мирзо-Улугбекский район &raquo; Массив",
              "name": "Буюк ипак йули (Ц-1)",
              "type_id": 4,
              "lat": "41.3125721",
              "lng": "69.2910306",
              "city_id": 196,
              "region_id": 13,
              "typeName": "Массив"
            }
          ]
        },
        "В": {
          "name": "В",
          "count": 1,
          "items": [
            {
              "id": "zn-2095",
              "uId": "199-2095",
              "parents": "город Ташкент &raquo; Олмазорский район &raquo; Массив",
              "name": "ВУЗ городок",
              "type_id": 4,
              "lat": "41.3482160",
              "lng": "69.2057880",
              "city_id": 199,
              "region_id": 13,
              "typeName": "Массив"
            }
          ]
        },
        "Г": {
          "name": "Г",
          "count": 9,
          "items": [
            {
              "id": "zn-3398",
              "uId": "198-3398",
              "parents": "город Ташкент &raquo; Шайхантахурский район &raquo; Массив",
              "name": "Ганга",
              "type_id": 4,
              "lat": "41.3277780",
              "lng": "69.2480320",
              "city_id": 198,
              "region_id": 13,
              "typeName": "Массив"
            },
            {
              "id": "zn-2155",
              "uId": "200-2155",
              "parents": "город Ташкент &raquo; Яшнободский район &raquo; Массив",
              "name": "Городок Авиастроителей-1",
              "type_id": 4,
              "lat": "41.2860310",
              "lng": "69.3548540",
              "city_id": 200,
              "region_id": 13,
              "typeName": "Массив"
            },
            {
              "id": "zn-2156",
              "uId": "200-2156",
              "parents": "город Ташкент &raquo; Яшнободский район &raquo; Массив",
              "name": "Городок Авиастроителей-2",
              "type_id": 4,
              "lat": "41.2830490",
              "lng": "69.3457270",
              "city_id": 200,
              "region_id": 13,
              "typeName": "Массив"
            },
            {
              "id": "zn-2157",
              "uId": "200-2157",
              "parents": "город Ташкент &raquo; Яшнободский район &raquo; Массив",
              "name": "Городок Авиастроителей-3",
              "type_id": 4,
              "lat": "41.2882330",
              "lng": "69.3416040",
              "city_id": 200,
              "region_id": 13,
              "typeName": "Массив"
            },
            {
              "id": "zn-2158",
              "uId": "200-2158",
              "parents": "город Ташкент &raquo; Яшнободский район &raquo; Массив",
              "name": "Городок Авиастроителей-4",
              "type_id": 4,
              "lat": "41.2966210",
              "lng": "69.3457450",
              "city_id": 200,
              "region_id": 13,
              "typeName": "Массив"
            },
            {
              "id": "zn-2152",
              "uId": "200-2152",
              "parents": "город Ташкент &raquo; Яшнободский район &raquo; Массив",
              "name": "Гузал-1",
              "type_id": 4,
              "lat": "41.2869860",
              "lng": "69.3665230",
              "city_id": 200,
              "region_id": 13,
              "typeName": "Массив"
            },
            {
              "id": "zn-2151",
              "uId": "200-2151",
              "parents": "город Ташкент &raquo; Яшнободский район &raquo; Массив",
              "name": "Гузал-2",
              "type_id": 4,
              "lat": "41.2869860",
              "lng": "69.3665230",
              "city_id": 200,
              "region_id": 13,
              "typeName": "Массив"
            },
            {
              "id": "zn-2117",
              "uId": "198-2117",
              "parents": "город Ташкент &raquo; Шайхантахурский район &raquo; Массив",
              "name": "Гулабад (ц-26)",
              "type_id": 4,
              "lat": "41.3246010",
              "lng": "69.2254600",
              "city_id": 198,
              "region_id": 13,
              "typeName": "Массив"
            },
            {
              "id": "zn-2224",
              "uId": "202-2224",
              "parents": "город Ташкент &raquo; Чиланзарский район &raquo; Массив",
              "name": "Гулистон",
              "type_id": 4,
              "lat": "41.2608470",
              "lng": "69.1579880",
              "city_id": 202,
              "region_id": 13,
              "typeName": "Массив"
            }
          ]
        },
        "Д": {
          "name": "Д",
          "count": 6,
          "items": [
            {
              "id": "zn-2118",
              "uId": "198-2118",
              "parents": "город Ташкент &raquo; Шайхантахурский район &raquo; Массив",
              "name": "Дарвоза Богкуча (ц-27)",
              "type_id": 4,
              "lat": "41.3272010",
              "lng": "69.2217050",
              "city_id": 198,
              "region_id": 13,
              "typeName": "Массив"
            },
            {
              "id": "zn-2122",
              "uId": "198-2122",
              "parents": "город Ташкент &raquo; Шайхантахурский район &raquo; Массив",
              "name": "Джарарык",
              "type_id": 4,
              "lat": "41.3381500",
              "lng": "69.1784160",
              "city_id": 198,
              "region_id": 13,
              "typeName": "Массив"
            },
            {
              "id": "zn-2228",
              "uId": "202-2228",
              "parents": "город Ташкент &raquo; Чиланзарский район &raquo; Массив",
              "name": "Домбирабад",
              "type_id": 4,
              "lat": "41.2619856",
              "lng": "69.2052496",
              "city_id": 202,
              "region_id": 13,
              "typeName": "Массив"
            },
            {
              "id": "zn-2204",
              "uId": "206-2204",
              "parents": "город Ташкент &raquo; Сергелийский район &raquo; Массив",
              "name": "Дустлик-1",
              "type_id": 4,
              "lat": "41.1928300",
              "lng": "69.2141600",
              "city_id": 206,
              "region_id": 13,
              "typeName": "Массив"
            },
            {
              "id": "zn-2205",
              "uId": "206-2205",
              "parents": "город Ташкент &raquo; Сергелийский район &raquo; Массив",
              "name": "Дустлик-2",
              "type_id": 4,
              "lat": "41.1926600",
              "lng": "69.2083560",
              "city_id": 206,
              "region_id": 13,
              "typeName": "Массив"
            },
            {
              "id": "zn-3407",
              "uId": "206-3407",
              "parents": "город Ташкент &raquo; Сергелийский район &raquo; Массив",
              "name": "Дустлик",
              "type_id": 4,
              "lat": "41.1928300",
              "lng": "69.2141600",
              "city_id": 206,
              "region_id": 13,
              "typeName": "Массив"
            }
          ]
        },
        "Ж": {
          "name": "Ж",
          "count": 1,
          "items": [
            {
              "id": "zn-2110",
              "uId": "198-2110",
              "parents": "город Ташкент &raquo; Шайхантахурский район &raquo; Массив",
              "name": "Жангох",
              "type_id": 4,
              "lat": "41.3293410",
              "lng": "69.2525720",
              "city_id": 198,
              "region_id": 13,
              "typeName": "Массив"
            }
          ]
        },
        "И": {
          "name": "И",
          "count": 1,
          "items": [
            {
              "id": "zn-2132",
              "uId": "203-2132",
              "parents": "город Ташкент &raquo; Учтепинский район &raquo; Массив",
              "name": "Изза",
              "type_id": 4,
              "lat": "41.2822500",
              "lng": "69.1584730",
              "city_id": 203,
              "region_id": 13,
              "typeName": "Массив"
            }
          ]
        },
        "К": {
          "name": "К",
          "count": 28,
          "items": [
            {
              "id": "zn-3416",
              "uId": "199-3416",
              "parents": "город Ташкент &raquo; Олмазорский район &raquo; Массив",
              "name": "Каракамыш-2\/3",
              "type_id": 4,
              "lat": "41.3678840",
              "lng": "69.2157460",
              "city_id": 199,
              "region_id": 13,
              "typeName": "Массив"
            },
            {
              "id": "zn-2101",
              "uId": "199-2101",
              "parents": "город Ташкент &raquo; Олмазорский район &raquo; Массив",
              "name": "Каракамыш-1\/1",
              "type_id": 4,
              "lat": "41.3526240",
              "lng": "69.2370850",
              "city_id": 199,
              "region_id": 13,
              "typeName": "Массив"
            },
            {
              "id": "zn-2102",
              "uId": "199-2102",
              "parents": "город Ташкент &raquo; Олмазорский район &raquo; Массив",
              "name": "Каракамыш-1\/2",
              "type_id": 4,
              "lat": "41.3574020",
              "lng": "69.2359350",
              "city_id": 199,
              "region_id": 13,
              "typeName": "Массив"
            },
            {
              "id": "zn-2103",
              "uId": "199-2103",
              "parents": "город Ташкент &raquo; Олмазорский район &raquo; Массив",
              "name": "Каракамыш-1\/3",
              "type_id": 4,
              "lat": "41.3589390",
              "lng": "69.2296110",
              "city_id": 199,
              "region_id": 13,
              "typeName": "Массив"
            },
            {
              "id": "zn-2104",
              "uId": "199-2104",
              "parents": "город Ташкент &raquo; Олмазорский район &raquo; Массив",
              "name": "Каракамыш-1\/4",
              "type_id": 4,
              "lat": "41.3635410",
              "lng": "69.2342460",
              "city_id": 199,
              "region_id": 13,
              "typeName": "Массив"
            },
            {
              "id": "zn-2105",
              "uId": "199-2105",
              "parents": "город Ташкент &raquo; Олмазорский район &raquo; Массив",
              "name": "Каракамыш-2\/1",
              "type_id": 4,
              "lat": "41.3577070",
              "lng": "69.2240500",
              "city_id": 199,
              "region_id": 13,
              "typeName": "Массив"
            },
            {
              "id": "zn-2106",
              "uId": "199-2106",
              "parents": "город Ташкент &raquo; Олмазорский район &raquo; Массив",
              "name": "Каракамыш-2\/2",
              "type_id": 4,
              "lat": "41.3595000",
              "lng": "69.2182830",
              "city_id": 199,
              "region_id": 13,
              "typeName": "Массив"
            },
            {
              "id": "zn-2107",
              "uId": "199-2107",
              "parents": "город Ташкент &raquo; Олмазорский район &raquo; Массив",
              "name": "Каракамыш-2\/4",
              "type_id": 4,
              "lat": "41.3677570",
              "lng": "69.2096590",
              "city_id": 199,
              "region_id": 13,
              "typeName": "Массив"
            },
            {
              "id": "zn-2108",
              "uId": "199-2108",
              "parents": "город Ташкент &raquo; Олмазорский район &raquo; Массив",
              "name": "Каракамыш-2\/5",
              "type_id": 4,
              "lat": "41.3619170",
              "lng": "69.2100720",
              "city_id": 199,
              "region_id": 13,
              "typeName": "Массив"
            },
            {
              "id": "zn-2057",
              "uId": "196-2057",
              "parents": "город Ташкент &raquo; Мирзо-Улугбекский район &raquo; Массив",
              "name": "Карасу-1",
              "type_id": 4,
              "lat": "41.3372020",
              "lng": "69.3739700",
              "city_id": 196,
              "region_id": 13,
              "typeName": "Массив"
            },
            {
              "id": "zn-2058",
              "uId": "196-2058",
              "parents": "город Ташкент &raquo; Мирзо-Улугбекский район &raquo; Массив",
              "name": "Карасу-2",
              "type_id": 4,
              "lat": "41.3311080",
              "lng": "69.3630190",
              "city_id": 196,
              "region_id": 13,
              "typeName": "Массив"
            },
            {
              "id": "zn-2059",
              "uId": "196-2059",
              "parents": "город Ташкент &raquo; Мирзо-Улугбекский район &raquo; Массив",
              "name": "Карасу-3",
              "type_id": 4,
              "lat": "41.3326582",
              "lng": "69.3686297",
              "city_id": 196,
              "region_id": 13,
              "typeName": "Массив"
            },
            {
              "id": "zn-2060",
              "uId": "196-2060",
              "parents": "город Ташкент &raquo; Мирзо-Улугбекский район &raquo; Массив",
              "name": "Карасу-4",
              "type_id": 4,
              "lat": "41.3320630",
              "lng": "69.3738710",
              "city_id": 196,
              "region_id": 13,
              "typeName": "Массив"
            },
            {
              "id": "zn-2061",
              "uId": "196-2061",
              "parents": "город Ташкент &raquo; Мирзо-Улугбекский район &raquo; Массив",
              "name": "карасу-6",
              "type_id": 4,
              "lat": "41.3194140",
              "lng": "69.3541260",
              "city_id": 196,
              "region_id": 13,
              "typeName": "Массив"
            },
            {
              "id": "zn-3399",
              "uId": "196-3399",
              "parents": "город Ташкент &raquo; Мирзо-Улугбекский район &raquo; Массив",
              "name": "Карасув",
              "type_id": 4,
              "lat": "41.3372020",
              "lng": "69.3739700",
              "city_id": 196,
              "region_id": 13,
              "typeName": "Массив"
            },
            {
              "id": "zn-2068",
              "uId": "197-2068",
              "parents": "город Ташкент &raquo; Юнусабадский район &raquo; Массив",
              "name": "Кашгар (Ц-4)",
              "type_id": 4,
              "lat": "41.3197730",
              "lng": "69.2779130",
              "city_id": 197,
              "region_id": 13,
              "typeName": "Массив"
            },
            {
              "id": "zn-2069",
              "uId": "197-2069",
              "parents": "город Ташкент &raquo; Юнусабадский район &raquo; Массив",
              "name": "Киёт (Ц-5)",
              "type_id": 4,
              "lat": "41.3258661",
              "lng": "69.2771388",
              "city_id": 197,
              "region_id": 13,
              "typeName": "Массив"
            },
            {
              "id": "zn-2169",
              "uId": "204-2169",
              "parents": "город Ташкент &raquo; Мирабадский район &raquo; Массив",
              "name": "Куйлюк-1",
              "type_id": 4,
              "lat": "41.2473630",
              "lng": "69.3136390",
              "city_id": 204,
              "region_id": 13,
              "typeName": "Массив"
            },
            {
              "id": "zn-2170",
              "uId": "204-2170",
              "parents": "город Ташкент &raquo; Мирабадский район &raquo; Массив",
              "name": "Куйлюк-2",
              "type_id": 4,
              "lat": "41.2509430",
              "lng": "69.3043860",
              "city_id": 204,
              "region_id": 13,
              "typeName": "Массив"
            },
            {
              "id": "zn-2171",
              "uId": "204-2171",
              "parents": "город Ташкент &raquo; Мирабадский район &raquo; Массив",
              "name": "Куйлюк-3",
              "type_id": 4,
              "lat": "41.2508950",
              "lng": "69.3101890",
              "city_id": 204,
              "region_id": 13,
              "typeName": "Массив"
            },
            {
              "id": "zn-2172",
              "uId": "204-2172",
              "parents": "город Ташкент &raquo; Мирабадский район &raquo; Массив",
              "name": "Куйлюк-4",
              "type_id": 4,
              "lat": "41.2467730",
              "lng": "69.3059140",
              "city_id": 204,
              "region_id": 13,
              "typeName": "Массив"
            },
            {
              "id": "zn-2173",
              "uId": "206-2173",
              "parents": "город Ташкент &raquo; Сергелийский район &raquo; Массив",
              "name": "Куйлюк-5",
              "type_id": 4,
              "lat": "41.2470103",
              "lng": "69.2984404",
              "city_id": 206,
              "region_id": 13,
              "typeName": "Массив"
            },
            {
              "id": "zn-2174",
              "uId": "206-2174",
              "parents": "город Ташкент &raquo; Сергелийский район &raquo; Массив",
              "name": "Куйлюк-6",
              "type_id": 4,
              "lat": "41.2466310",
              "lng": "69.2897260",
              "city_id": 206,
              "region_id": 13,
              "typeName": "Массив"
            },
            {
              "id": "zn-2175",
              "uId": "206-2175",
              "parents": "город Ташкент &raquo; Сергелийский район &raquo; Массив",
              "name": "Куйлюк-7",
              "type_id": 4,
              "lat": "41.2363600",
              "lng": "69.2533025",
              "city_id": 206,
              "region_id": 13,
              "typeName": "Массив"
            },
            {
              "id": "zn-3408",
              "uId": "204-3408",
              "parents": "город Ташкент &raquo; Мирабадский район &raquo; Массив",
              "name": "Куйлюк",
              "type_id": 4,
              "lat": "41.2473630",
              "lng": "69.3136390",
              "city_id": 204,
              "region_id": 13,
              "typeName": "Массив"
            },
            {
              "id": "zn-2124",
              "uId": "198-2124",
              "parents": "город Ташкент &raquo; Шайхантахурский район &raquo; Массив",
              "name": "Кукча",
              "type_id": 4,
              "lat": "41.3251430",
              "lng": "69.2025530",
              "city_id": 198,
              "region_id": 13,
              "typeName": "Массив"
            },
            {
              "id": "zn-2176",
              "uId": "206-2176",
              "parents": "город Ташкент &raquo; Сергелийский район &raquo; Массив",
              "name": "Кумарык",
              "type_id": 4,
              "lat": "41.2504210",
              "lng": "69.2556890",
              "city_id": 206,
              "region_id": 13,
              "typeName": "Массив"
            },
            {
              "id": "zn-2206",
              "uId": "205-2206",
              "parents": "город Ташкент &raquo; Яккасарайский район &raquo; Массив",
              "name": "Кушбеги",
              "type_id": 4,
              "lat": "41.2675370",
              "lng": "69.2421330",
              "city_id": 205,
              "region_id": 13,
              "typeName": "Массив"
            }
          ]
        },
        "Л": {
          "name": "Л",
          "count": 1,
          "items": [
            {
              "id": "zn-2111",
              "uId": "198-2111",
              "parents": "город Ташкент &raquo; Шайхантахурский район &raquo; Массив",
              "name": "Лабзак (ц-13)",
              "type_id": 4,
              "lat": "41.3272560",
              "lng": "69.2599380",
              "city_id": 198,
              "region_id": 13,
              "typeName": "Массив"
            }
          ]
        },
        "М": {
          "name": "М",
          "count": 1,
          "items": [
            {
              "id": "zn-2070",
              "uId": "197-2070",
              "parents": "город Ташкент &raquo; Юнусабадский район &raquo; Массив",
              "name": "Минор (Ц-6)",
              "type_id": 4,
              "lat": "41.3309320",
              "lng": "69.2797280",
              "city_id": 197,
              "region_id": 13,
              "typeName": "Массив"
            }
          ]
        },
        "О": {
          "name": "О",
          "count": 3,
          "items": [
            {
              "id": "zn-3397",
              "uId": "199-3397",
              "parents": "город Ташкент &raquo; Олмазорский район &raquo; Массив",
              "name": "Олимпия",
              "type_id": 4,
              "lat": "41.3622741",
              "lng": "69.1949480",
              "city_id": 199,
              "region_id": 13,
              "typeName": "Массив"
            },
            {
              "id": "zn-2067",
              "uId": "196-2067",
              "parents": "город Ташкент &raquo; Мирзо-Улугбекский район &raquo; Массив",
              "name": "Олой (Ц-2)",
              "type_id": 4,
              "lat": "41.3163250",
              "lng": "69.2874260",
              "city_id": 196,
              "region_id": 13,
              "typeName": "Массив"
            },
            {
              "id": "zn-2149",
              "uId": "200-2149",
              "parents": "город Ташкент &raquo; Яшнободский район &raquo; Массив",
              "name": "Оханрабо",
              "type_id": 4,
              "lat": "41.2554980",
              "lng": "69.3442450",
              "city_id": 200,
              "region_id": 13,
              "typeName": "Массив"
            }
          ]
        },
        "П": {
          "name": "П",
          "count": 1,
          "items": [
            {
              "id": "zn-2167",
              "uId": "200-2167",
              "parents": "город Ташкент &raquo; Яшнободский район &raquo; Массив",
              "name": "Пуломас",
              "type_id": 4,
              "lat": null,
              "lng": null,
              "city_id": 200,
              "region_id": 13,
              "typeName": "Массив"
            }
          ]
        },
        "Р": {
          "name": "Р",
          "count": 1,
          "items": [
            {
              "id": "zn-2165",
              "uId": "200-2165",
              "parents": "город Ташкент &raquo; Яшнободский район &raquo; Массив",
              "name": "Риёзий",
              "type_id": 4,
              "lat": "41.3125870",
              "lng": "69.3260810",
              "city_id": 200,
              "region_id": 13,
              "typeName": "Массив"
            }
          ]
        },
        "С": {
          "name": "С",
          "count": 29,
          "items": [
            {
              "id": "zn-2092",
              "uId": "199-2092",
              "parents": "город Ташкент &raquo; Олмазорский район &raquo; Массив",
              "name": "Себзар (ц-17, ц-18)",
              "type_id": 4,
              "lat": "41.3371469",
              "lng": "69.2553118",
              "city_id": 199,
              "region_id": 13,
              "typeName": "Массив"
            },
            {
              "id": "zn-2183",
              "uId": "206-2183",
              "parents": "город Ташкент &raquo; Сергелийский район &raquo; Массив",
              "name": "Сергели-1",
              "type_id": 4,
              "lat": "41.2061210",
              "lng": "69.2156600",
              "city_id": 206,
              "region_id": 13,
              "typeName": "Массив"
            },
            {
              "id": "zn-2184",
              "uId": "206-2184",
              "parents": "город Ташкент &raquo; Сергелийский район &raquo; Массив",
              "name": "Сергели-2",
              "type_id": 4,
              "lat": "41.2107140",
              "lng": "69.2262870",
              "city_id": 206,
              "region_id": 13,
              "typeName": "Массив"
            },
            {
              "id": "zn-2185",
              "uId": "206-2185",
              "parents": "город Ташкент &raquo; Сергелийский район &raquo; Массив",
              "name": "Сергели-3",
              "type_id": 4,
              "lat": "41.2136310",
              "lng": "69.2333840",
              "city_id": 206,
              "region_id": 13,
              "typeName": "Массив"
            },
            {
              "id": "zn-2186",
              "uId": "206-2186",
              "parents": "город Ташкент &raquo; Сергелийский район &raquo; Массив",
              "name": "Сергели-4",
              "type_id": 4,
              "lat": "41.2159920",
              "lng": "69.2401210",
              "city_id": 206,
              "region_id": 13,
              "typeName": "Массив"
            },
            {
              "id": "zn-2178",
              "uId": "206-2178",
              "parents": "город Ташкент &raquo; Сергелийский район &raquo; Массив",
              "name": "Сергели-5",
              "type_id": 4,
              "lat": "41.2260030",
              "lng": "69.2085990",
              "city_id": 206,
              "region_id": 13,
              "typeName": "Массив"
            },
            {
              "id": "zn-2179",
              "uId": "206-2179",
              "parents": "город Ташкент &raquo; Сергелийский район &raquo; Массив",
              "name": "Сергели-6",
              "type_id": 4,
              "lat": "41.2275490",
              "lng": "69.2180203",
              "city_id": 206,
              "region_id": 13,
              "typeName": "Массив"
            },
            {
              "id": "zn-2180",
              "uId": "206-2180",
              "parents": "город Ташкент &raquo; Сергелийский район &raquo; Массив",
              "name": "Сергели-7",
              "type_id": 4,
              "lat": "41.2201900",
              "lng": "69.2131530",
              "city_id": 206,
              "region_id": 13,
              "typeName": "Массив"
            },
            {
              "id": "zn-2181",
              "uId": "206-2181",
              "parents": "город Ташкент &raquo; Сергелийский район &raquo; Массив",
              "name": "Сергели-8",
              "type_id": 4,
              "lat": "41.2211810",
              "lng": "69.2196930",
              "city_id": 206,
              "region_id": 13,
              "typeName": "Массив"
            },
            {
              "id": "zn-2182",
              "uId": "206-2182",
              "parents": "город Ташкент &raquo; Сергелийский район &raquo; Массив",
              "name": "Сергели-8А",
              "type_id": 4,
              "lat": "41.2248570",
              "lng": "69.2177710",
              "city_id": 206,
              "region_id": 13,
              "typeName": "Массив"
            },
            {
              "id": "zn-2187",
              "uId": "206-2187",
              "parents": "город Ташкент &raquo; Сергелийский район &raquo; Массив",
              "name": "Спутник-1",
              "type_id": 4,
              "lat": "41.2008630",
              "lng": "69.2143300",
              "city_id": 206,
              "region_id": 13,
              "typeName": "Массив"
            },
            {
              "id": "zn-2198",
              "uId": "206-2198",
              "parents": "город Ташкент &raquo; Сергелийский район &raquo; Массив",
              "name": "Спутник-10",
              "type_id": 4,
              "lat": "41.2014130",
              "lng": "69.2276970",
              "city_id": 206,
              "region_id": 13,
              "typeName": "Массив"
            },
            {
              "id": "zn-2199",
              "uId": "206-2199",
              "parents": "город Ташкент &raquo; Сергелийский район &raquo; Массив",
              "name": "Спутник-11",
              "type_id": 4,
              "lat": "41.1981090",
              "lng": "69.2293860",
              "city_id": 206,
              "region_id": 13,
              "typeName": "Массив"
            },
            {
              "id": "zn-2200",
              "uId": "206-2200",
              "parents": "город Ташкент &raquo; Сергелийский район &raquo; Массив",
              "name": "Спутник-12",
              "type_id": 4,
              "lat": "41.1922800",
              "lng": "69.2205290",
              "city_id": 206,
              "region_id": 13,
              "typeName": "Массив"
            },
            {
              "id": "zn-2201",
              "uId": "206-2201",
              "parents": "город Ташкент &raquo; Сергелийский район &raquo; Массив",
              "name": "Спутник-13",
              "type_id": 4,
              "lat": "41.1936580",
              "lng": "69.2238790",
              "city_id": 206,
              "region_id": 13,
              "typeName": "Массив"
            },
            {
              "id": "zn-2202",
              "uId": "206-2202",
              "parents": "город Ташкент &raquo; Сергелийский район &raquo; Массив",
              "name": "Спутник-14",
              "type_id": 4,
              "lat": "41.1950620",
              "lng": "69.2272570",
              "city_id": 206,
              "region_id": 13,
              "typeName": "Массив"
            },
            {
              "id": "zn-2188",
              "uId": "206-2188",
              "parents": "город Ташкент &raquo; Сергелийский район &raquo; Массив",
              "name": "Спутник-1ц",
              "type_id": 4,
              "lat": "41.2023760",
              "lng": "69.2176270",
              "city_id": 206,
              "region_id": 13,
              "typeName": "Массив"
            },
            {
              "id": "zn-2190",
              "uId": "206-2190",
              "parents": "город Ташкент &raquo; Сергелийский район &raquo; Массив",
              "name": "Спутник-2",
              "type_id": 4,
              "lat": "41.2036790",
              "lng": "69.2210860",
              "city_id": 206,
              "region_id": 13,
              "typeName": "Массив"
            },
            {
              "id": "zn-2189",
              "uId": "206-2189",
              "parents": "город Ташкент &raquo; Сергелийский район &raquo; Массив",
              "name": "Спутник-2ц",
              "type_id": 4,
              "lat": "41.1993440",
              "lng": "69.2198550",
              "city_id": 206,
              "region_id": 13,
              "typeName": "Массив"
            },
            {
              "id": "zn-2191",
              "uId": "206-2191",
              "parents": "город Ташкент &raquo; Сергелийский район &raquo; Массив",
              "name": "Спутник-3",
              "type_id": 4,
              "lat": "41.2056260",
              "lng": "69.2254870",
              "city_id": 206,
              "region_id": 13,
              "typeName": "Массив"
            },
            {
              "id": "zn-2203",
              "uId": "206-2203",
              "parents": "город Ташкент &raquo; Сергелийский район &raquo; Массив",
              "name": "Спутник-3ц",
              "type_id": 4,
              "lat": "41.1961210",
              "lng": "69.2221280",
              "city_id": 206,
              "region_id": 13,
              "typeName": "Массив"
            },
            {
              "id": "zn-2192",
              "uId": "206-2192",
              "parents": "город Ташкент &raquo; Сергелийский район &raquo; Массив",
              "name": "Спутник-4",
              "type_id": 4,
              "lat": "41.2071050",
              "lng": "69.2297450",
              "city_id": 206,
              "region_id": 13,
              "typeName": "Массив"
            },
            {
              "id": "zn-2193",
              "uId": "206-2193",
              "parents": "город Ташкент &raquo; Сергелийский район &raquo; Массив",
              "name": "Спутник-5",
              "type_id": 4,
              "lat": "41.1979530",
              "lng": "69.2164320",
              "city_id": 206,
              "region_id": 13,
              "typeName": "Массив"
            },
            {
              "id": "zn-2194",
              "uId": "206-2194",
              "parents": "город Ташкент &raquo; Сергелийский район &raquo; Массив",
              "name": "Спутник-6",
              "type_id": 4,
              "lat": "41.2006400",
              "lng": "69.2230890",
              "city_id": 206,
              "region_id": 13,
              "typeName": "Массив"
            },
            {
              "id": "zn-2195",
              "uId": "206-2195",
              "parents": "город Ташкент &raquo; Сергелийский район &raquo; Массив",
              "name": "Спутник-7",
              "type_id": 4,
              "lat": "41.2039640",
              "lng": "69.2278860",
              "city_id": 206,
              "region_id": 13,
              "typeName": "Массив"
            },
            {
              "id": "zn-2196",
              "uId": "206-2196",
              "parents": "город Ташкент &raquo; Сергелийский район &raquo; Массив",
              "name": "Спутник-8",
              "type_id": 4,
              "lat": "41.1947230",
              "lng": "69.2187500",
              "city_id": 206,
              "region_id": 13,
              "typeName": "Массив"
            },
            {
              "id": "zn-2197",
              "uId": "206-2197",
              "parents": "город Ташкент &raquo; Сергелийский район &raquo; Массив",
              "name": "Спутник-9",
              "type_id": 4,
              "lat": "41.1973490",
              "lng": "69.2255860",
              "city_id": 206,
              "region_id": 13,
              "typeName": "Массив"
            },
            {
              "id": "zn-2147",
              "uId": "201-2147",
              "parents": "город Ташкент &raquo; Бектемирский район &raquo; Массив",
              "name": "Сувсоз-1 (Водник)",
              "type_id": 4,
              "lat": "41.2484550",
              "lng": "69.3687420",
              "city_id": 201,
              "region_id": 13,
              "typeName": "Массив"
            },
            {
              "id": "zn-2148",
              "uId": "201-2148",
              "parents": "город Ташкент &raquo; Бектемирский район &raquo; Массив",
              "name": "Сувсоз-2 (Водник-2)",
              "type_id": 4,
              "lat": "41.2538650",
              "lng": "69.3758380",
              "city_id": 201,
              "region_id": 13,
              "typeName": "Массив"
            }
          ]
        },
        "Т": {
          "name": "Т",
          "count": 10,
          "items": [
            {
              "id": "zn-2109",
              "uId": "198-2109",
              "parents": "город Ташкент &raquo; Шайхантахурский район &raquo; Массив",
              "name": "Тахтапул",
              "type_id": 4,
              "lat": "41.3408450",
              "lng": "69.2591650",
              "city_id": 198,
              "region_id": 13,
              "typeName": "Массив"
            },
            {
              "id": "zn-2166",
              "uId": "200-2166",
              "parents": "город Ташкент &raquo; Яшнободский район &raquo; Массив",
              "name": "Ташсельмаш",
              "type_id": 4,
              "lat": "41.3082590",
              "lng": "69.3078900",
              "city_id": 200,
              "region_id": 13,
              "typeName": "Массив"
            },
            {
              "id": "zn-2049",
              "uId": "196-2049",
              "parents": "город Ташкент &raquo; Мирзо-Улугбекский район &raquo; Массив",
              "name": "ТТЗ-1",
              "type_id": 4,
              "lat": "41.3588030",
              "lng": "69.3917210",
              "city_id": 196,
              "region_id": 13,
              "typeName": "Массив"
            },
            {
              "id": "zn-2050",
              "uId": "196-2050",
              "parents": "город Ташкент &raquo; Мирзо-Улугбекский район &raquo; Массив",
              "name": "ТТЗ-2",
              "type_id": 4,
              "lat": "41.3549180",
              "lng": "69.3829980",
              "city_id": 196,
              "region_id": 13,
              "typeName": "Массив"
            },
            {
              "id": "zn-2051",
              "uId": "196-2051",
              "parents": "город Ташкент &raquo; Мирзо-Улугбекский район &raquo; Массив",
              "name": "ТТЗ-4",
              "type_id": 4,
              "lat": "41.3633240",
              "lng": "69.3900320",
              "city_id": 196,
              "region_id": 13,
              "typeName": "Массив"
            },
            {
              "id": "zn-3400",
              "uId": "196-3400",
              "parents": "город Ташкент &raquo; Мирзо-Улугбекский район &raquo; Массив",
              "name": "ТТЗ",
              "type_id": 4,
              "lat": "41.3549180",
              "lng": "69.3829980",
              "city_id": 196,
              "region_id": 13,
              "typeName": "Массив"
            },
            {
              "id": "zn-2161",
              "uId": "200-2161",
              "parents": "город Ташкент &raquo; Яшнободский район &raquo; Массив",
              "name": "Тузель-1",
              "type_id": 4,
              "lat": "41.2976344",
              "lng": "69.3532741",
              "city_id": 200,
              "region_id": 13,
              "typeName": "Массив"
            },
            {
              "id": "zn-2162",
              "uId": "200-2162",
              "parents": "город Ташкент &raquo; Яшнободский район &raquo; Массив",
              "name": "Тузель-2",
              "type_id": 4,
              "lat": "41.2915530",
              "lng": "69.3614110",
              "city_id": 200,
              "region_id": 13,
              "typeName": "Массив"
            },
            {
              "id": "zn-2163",
              "uId": "200-2163",
              "parents": "город Ташкент &raquo; Яшнободский район &raquo; Массив",
              "name": "Тузель-3",
              "type_id": 4,
              "lat": "41.2945540",
              "lng": "69.3655080",
              "city_id": 200,
              "region_id": 13,
              "typeName": "Массив"
            },
            {
              "id": "zn-2164",
              "uId": "200-2164",
              "parents": "город Ташкент &raquo; Яшнободский район &raquo; Массив",
              "name": "Тузель-4",
              "type_id": 4,
              "lat": "41.2959570",
              "lng": "69.3676280",
              "city_id": 200,
              "region_id": 13,
              "typeName": "Массив"
            }
          ]
        },
        "У": {
          "name": "У",
          "count": 3,
          "items": [
            {
              "id": "zn-2177",
              "uId": "206-2177",
              "parents": "город Ташкент &raquo; Сергелийский район &raquo; Массив",
              "name": "Узгариш",
              "type_id": 4,
              "lat": "41.2120170",
              "lng": "69.2136300",
              "city_id": 206,
              "region_id": 13,
              "typeName": "Массив"
            },
            {
              "id": "zn-2114",
              "uId": "198-2114",
              "parents": "город Ташкент &raquo; Шайхантахурский район &raquo; Массив",
              "name": "Урда",
              "type_id": 4,
              "lat": "41.3223930",
              "lng": "69.2613390",
              "city_id": 198,
              "region_id": 13,
              "typeName": "Массив"
            },
            {
              "id": "zn-2131",
              "uId": "203-2131",
              "parents": "город Ташкент &raquo; Учтепинский район &raquo; Массив",
              "name": "Урикзар",
              "type_id": 4,
              "lat": "41.2864000",
              "lng": "69.1488550",
              "city_id": 203,
              "region_id": 13,
              "typeName": "Массив"
            }
          ]
        },
        "Ф": {
          "name": "Ф",
          "count": 5,
          "items": [
            {
              "id": "zn-2168",
              "uId": "204-2168",
              "parents": "город Ташкент &raquo; Мирабадский район &raquo; Массив",
              "name": "Файзиабад",
              "type_id": 4,
              "lat": "41.2567510",
              "lng": "69.3110620",
              "city_id": 204,
              "region_id": 13,
              "typeName": "Массив"
            },
            {
              "id": "zn-2054",
              "uId": "196-2054",
              "parents": "город Ташкент &raquo; Мирзо-Улугбекский район &raquo; Массив",
              "name": "Феруза-1",
              "type_id": 4,
              "lat": "41.3594730",
              "lng": "69.3640520",
              "city_id": 196,
              "region_id": 13,
              "typeName": "Массив"
            },
            {
              "id": "zn-2055",
              "uId": "196-2055",
              "parents": "город Ташкент &raquo; Мирзо-Улугбекский район &raquo; Массив",
              "name": "Феруза-2",
              "type_id": 4,
              "lat": "41.3521970",
              "lng": "69.3592820",
              "city_id": 196,
              "region_id": 13,
              "typeName": "Массив"
            },
            {
              "id": "zn-2056",
              "uId": "196-2056",
              "parents": "город Ташкент &raquo; Мирзо-Улугбекский район &raquo; Массив",
              "name": "Феруза-3",
              "type_id": 4,
              "lat": "41.3596360",
              "lng": "69.3695860",
              "city_id": 196,
              "region_id": 13,
              "typeName": "Массив"
            },
            {
              "id": "zn-3403",
              "uId": "196-3403",
              "parents": "город Ташкент &raquo; Мирзо-Улугбекский район &raquo; Массив",
              "name": "Феруза",
              "type_id": 4,
              "lat": "41.3594730",
              "lng": "69.3640520",
              "city_id": 196,
              "region_id": 13,
              "typeName": "Массив"
            }
          ]
        },
        "Х": {
          "name": "Х",
          "count": 3,
          "items": [
            {
              "id": "zn-2113",
              "uId": "198-2113",
              "parents": "город Ташкент &raquo; Шайхантахурский район &raquo; Массив",
              "name": "Хадра",
              "type_id": 4,
              "lat": "41.3237140",
              "lng": "69.2473880",
              "city_id": 198,
              "region_id": 13,
              "typeName": "Массив"
            },
            {
              "id": "zn-2091",
              "uId": "197-2091",
              "parents": "город Ташкент &raquo; Юнусабадский район &raquo; Массив",
              "name": "Хасанбой",
              "type_id": 4,
              "lat": "41.3862830",
              "lng": "69.2650400",
              "city_id": 197,
              "region_id": 13,
              "typeName": "Массив"
            },
            {
              "id": "zn-2053",
              "uId": "196-2053",
              "parents": "город Ташкент &raquo; Мирзо-Улугбекский район &raquo; Массив",
              "name": "Хумоюн",
              "type_id": 4,
              "lat": "41.3433830",
              "lng": "69.3889180",
              "city_id": 196,
              "region_id": 13,
              "typeName": "Массив"
            }
          ]
        },
        "Ц": {
          "name": "Ц",
          "count": 1,
          "items": [
            {
              "id": "zn-3415",
              "uId": "204-3415",
              "parents": "город Ташкент &raquo; Мирабадский район &raquo; Массив",
              "name": "ЦУМ (Ц-7)",
              "type_id": 4,
              "lat": "41.3070462",
              "lng": "69.2708236",
              "city_id": 204,
              "region_id": 13,
              "typeName": "Массив"
            }
          ]
        },
        "Ч": {
          "name": "Ч",
          "count": 2,
          "items": [
            {
              "id": "zn-2093",
              "uId": "199-2093",
              "parents": "город Ташкент &raquo; Олмазорский район &raquo; Массив",
              "name": "Чимбай",
              "type_id": 4,
              "lat": "41.3623700",
              "lng": "69.2015830",
              "city_id": 199,
              "region_id": 13,
              "typeName": "Массив"
            },
            {
              "id": "zn-2116",
              "uId": "198-2116",
              "parents": "город Ташкент &raquo; Шайхантахурский район &raquo; Массив",
              "name": "Чорсу",
              "type_id": 4,
              "lat": "41.3191360",
              "lng": "69.2306080",
              "city_id": 198,
              "region_id": 13,
              "typeName": "Массив"
            }
          ]
        },
        "Ш": {
          "name": "Ш",
          "count": 1,
          "items": [
            {
              "id": "zn-2096",
              "uId": "199-2096",
              "parents": "город Ташкент &raquo; Олмазорский район &raquo; Массив",
              "name": "Шифокорлар Шахарчаси",
              "type_id": 4,
              "lat": "41.3633040",
              "lng": "69.1812450",
              "city_id": 199,
              "region_id": 13,
              "typeName": "Массив"
            }
          ]
        },
        "Я": {
          "name": "Я",
          "count": 2,
          "items": [
            {
              "id": "zn-2062",
              "uId": "196-2062",
              "parents": "город Ташкент &raquo; Мирзо-Улугбекский район &raquo; Массив",
              "name": "Ялангач",
              "type_id": 4,
              "lat": "41.3526528",
              "lng": "69.3521824",
              "city_id": 196,
              "region_id": 13,
              "typeName": "Массив"
            },
            {
              "id": "zn-2150",
              "uId": "200-2150",
              "parents": "город Ташкент &raquo; Яшнободский район &raquo; Массив",
              "name": "Янгиабад",
              "type_id": 4,
              "lat": "41.2669870",
              "lng": "69.3495340",
              "city_id": 200,
              "region_id": 13,
              "typeName": "Массив"
            }
          ]
        }
      }
    },
    "z-20": {
      "name": "Квартал",
      "count": 54,
      "letterTabs": [
        "С",
        "Ч",
        "Ю",
        "Другие"
      ],
      "letters": {
        "С": {
          "name": "С",
          "count": 1,
          "items": [
            {
              "id": "zn-3410",
              "uId": "206-3410",
              "parents": "город Ташкент &raquo; Сергелийский район",
              "name": "Строитель",
              "type_id": 2,
              "lat": "41.2147770",
              "lng": "69.2572430",
              "city_id": 206,
              "region_id": 13,
              "typeName": "Квартал"
            }
          ]
        },
        "Ч": {
          "name": "Ч",
          "count": 33,
          "items": [
            {
              "id": "zn-2208",
              "uId": "202-2208",
              "parents": "город Ташкент &raquo; Чиланзарский район",
              "name": "Чиланзар-1",
              "type_id": 2,
              "lat": "41.2846420",
              "lng": "69.2287930",
              "city_id": 202,
              "region_id": 13,
              "typeName": "Квартал"
            },
            {
              "id": "zn-2217",
              "uId": "202-2217",
              "parents": "город Ташкент &raquo; Чиланзарский район",
              "name": "Чиланзар-10",
              "type_id": 2,
              "lat": "41.2829070",
              "lng": "69.1978010",
              "city_id": 202,
              "region_id": 13,
              "typeName": "Квартал"
            },
            {
              "id": "zn-2134",
              "uId": "203-2134",
              "parents": "город Ташкент &raquo; Учтепинский район",
              "name": "Чиланзар-11",
              "type_id": 2,
              "lat": "41.2783530",
              "lng": "69.1925010",
              "city_id": 203,
              "region_id": 13,
              "typeName": "Квартал"
            },
            {
              "id": "zn-2136",
              "uId": "203-2136",
              "parents": "город Ташкент &raquo; Учтепинский район",
              "name": "Чиланзар-12",
              "type_id": 2,
              "lat": "41.2815520",
              "lng": "69.1865180",
              "city_id": 203,
              "region_id": 13,
              "typeName": "Квартал"
            },
            {
              "id": "zn-2144",
              "uId": "203-2144",
              "parents": "город Ташкент &raquo; Учтепинский район",
              "name": "Чиланзар-13",
              "type_id": 2,
              "lat": "41.2911870",
              "lng": "69.1862220",
              "city_id": 203,
              "region_id": 13,
              "typeName": "Квартал"
            },
            {
              "id": "zn-2146",
              "uId": "203-2146",
              "parents": "город Ташкент &raquo; Учтепинский район",
              "name": "Чиланзар-14",
              "type_id": 2,
              "lat": "41.2953060",
              "lng": "69.1914050",
              "city_id": 203,
              "region_id": 13,
              "typeName": "Квартал"
            },
            {
              "id": "zn-2145",
              "uId": "203-2145",
              "parents": "город Ташкент &raquo; Учтепинский район",
              "name": "Чиланзар-15",
              "type_id": 2,
              "lat": "41.2954490",
              "lng": "69.1825570",
              "city_id": 203,
              "region_id": 13,
              "typeName": "Квартал"
            },
            {
              "id": "zn-2218",
              "uId": "202-2218",
              "parents": "город Ташкент &raquo; Чиланзарский район",
              "name": "Чиланзар-16",
              "type_id": 2,
              "lat": "41.2747070",
              "lng": "69.1998400",
              "city_id": 202,
              "region_id": 13,
              "typeName": "Квартал"
            },
            {
              "id": "zn-2219",
              "uId": "202-2219",
              "parents": "город Ташкент &raquo; Чиланзарский район",
              "name": "Чиланзар-17",
              "type_id": 2,
              "lat": "41.2725729",
              "lng": "69.2003084",
              "city_id": 202,
              "region_id": 13,
              "typeName": "Квартал"
            },
            {
              "id": "zn-2220",
              "uId": "202-2220",
              "parents": "город Ташкент &raquo; Чиланзарский район",
              "name": "Чиланзар-18",
              "type_id": 2,
              "lat": "41.2733380",
              "lng": "69.1913060",
              "city_id": 202,
              "region_id": 13,
              "typeName": "Квартал"
            },
            {
              "id": "zn-2221",
              "uId": "202-2221",
              "parents": "город Ташкент &raquo; Чиланзарский район",
              "name": "Чиланзар-19",
              "type_id": 2,
              "lat": "41.2699500",
              "lng": "69.1861500",
              "city_id": 202,
              "region_id": 13,
              "typeName": "Квартал"
            },
            {
              "id": "zn-2209",
              "uId": "202-2209",
              "parents": "город Ташкент &raquo; Чиланзарский район",
              "name": "Чиланзар-2",
              "type_id": 2,
              "lat": "41.2794100",
              "lng": "69.2230620",
              "city_id": 202,
              "region_id": 13,
              "typeName": "Квартал"
            },
            {
              "id": "zn-2222",
              "uId": "202-2222",
              "parents": "город Ташкент &raquo; Чиланзарский район",
              "name": "Чиланзар-20",
              "type_id": 2,
              "lat": "41.2664590",
              "lng": "69.1804190",
              "city_id": 202,
              "region_id": 13,
              "typeName": "Квартал"
            },
            {
              "id": "zn-2223",
              "uId": "202-2223",
              "parents": "город Ташкент &raquo; Чиланзарский район",
              "name": "Чиланзар-20A",
              "type_id": 2,
              "lat": "41.2657270",
              "lng": "69.1902280",
              "city_id": 202,
              "region_id": 13,
              "typeName": "Квартал"
            },
            {
              "id": "zn-2143",
              "uId": "203-2143",
              "parents": "город Ташкент &raquo; Учтепинский район",
              "name": "Чиланзар-21",
              "type_id": 2,
              "lat": "41.2922640",
              "lng": "69.1746880",
              "city_id": 203,
              "region_id": 13,
              "typeName": "Квартал"
            },
            {
              "id": "zn-2141",
              "uId": "203-2141",
              "parents": "город Ташкент &raquo; Учтепинский район",
              "name": "Чиланзар-22",
              "type_id": 2,
              "lat": "41.2896066",
              "lng": "69.1775084",
              "city_id": 203,
              "region_id": 13,
              "typeName": "Квартал"
            },
            {
              "id": "zn-2142",
              "uId": "203-2142",
              "parents": "город Ташкент &raquo; Учтепинский район",
              "name": "Чиланзар-23",
              "type_id": 2,
              "lat": "41.2870810",
              "lng": "69.1784070",
              "city_id": 203,
              "region_id": 13,
              "typeName": "Квартал"
            },
            {
              "id": "zn-2138",
              "uId": "203-2138",
              "parents": "город Ташкент &raquo; Учтепинский район",
              "name": "Чиланзар-24",
              "type_id": 2,
              "lat": "41.2816260",
              "lng": "69.1745080",
              "city_id": 203,
              "region_id": 13,
              "typeName": "Квартал"
            },
            {
              "id": "zn-2137",
              "uId": "203-2137",
              "parents": "город Ташкент &raquo; Учтепинский район",
              "name": "Чиланзар-25",
              "type_id": 2,
              "lat": "41.2803120",
              "lng": "69.1677890",
              "city_id": 203,
              "region_id": 13,
              "typeName": "Квартал"
            },
            {
              "id": "zn-2135",
              "uId": "203-2135",
              "parents": "город Ташкент &raquo; Учтепинский район",
              "name": "Чиланзар-26",
              "type_id": 2,
              "lat": "41.2768560",
              "lng": "69.1786850",
              "city_id": 203,
              "region_id": 13,
              "typeName": "Квартал"
            },
            {
              "id": "zn-2210",
              "uId": "202-2210",
              "parents": "город Ташкент &raquo; Чиланзарский район",
              "name": "Чиланзар-3",
              "type_id": 2,
              "lat": "41.2852476",
              "lng": "69.2232466",
              "city_id": 202,
              "region_id": 13,
              "typeName": "Квартал"
            },
            {
              "id": "zn-3401",
              "uId": "203-3401",
              "parents": "город Ташкент &raquo; Учтепинский район",
              "name": "Чиланзар-30 (Алгоритм-30)",
              "type_id": 2,
              "lat": "41.2655310",
              "lng": "69.1508190",
              "city_id": 203,
              "region_id": 13,
              "typeName": "Квартал"
            },
            {
              "id": "zn-3402",
              "uId": "203-3402",
              "parents": "город Ташкент &raquo; Учтепинский район",
              "name": "Чиланзар-31 (Алгоритм-31)",
              "type_id": 2,
              "lat": "41.2655310",
              "lng": "69.1508190",
              "city_id": 203,
              "region_id": 13,
              "typeName": "Квартал"
            },
            {
              "id": "zn-2211",
              "uId": "202-2211",
              "parents": "город Ташкент &raquo; Чиланзарский район",
              "name": "Чиланзар-4",
              "type_id": 2,
              "lat": "41.2851300",
              "lng": "69.2176810",
              "city_id": 202,
              "region_id": 13,
              "typeName": "Квартал"
            },
            {
              "id": "zn-2212",
              "uId": "202-2212",
              "parents": "город Ташкент &raquo; Чиланзарский район",
              "name": "Чиланзар-5",
              "type_id": 2,
              "lat": "41.2913970",
              "lng": "69.2168550",
              "city_id": 202,
              "region_id": 13,
              "typeName": "Квартал"
            },
            {
              "id": "zn-2213",
              "uId": "202-2213",
              "parents": "город Ташкент &raquo; Чиланзарский район",
              "name": "Чиланзар-6",
              "type_id": 2,
              "lat": "41.2869520",
              "lng": "69.2111050",
              "city_id": 202,
              "region_id": 13,
              "typeName": "Квартал"
            },
            {
              "id": "zn-2214",
              "uId": "202-2214",
              "parents": "город Ташкент &raquo; Чиланзарский район",
              "name": "Чиланзар-7",
              "type_id": 2,
              "lat": "41.2970880",
              "lng": "69.2103060",
              "city_id": 202,
              "region_id": 13,
              "typeName": "Квартал"
            },
            {
              "id": "zn-2215",
              "uId": "202-2215",
              "parents": "город Ташкент &raquo; Чиланзарский район",
              "name": "Чиланзар-8",
              "type_id": 2,
              "lat": "41.2882753",
              "lng": "69.2053191",
              "city_id": 202,
              "region_id": 13,
              "typeName": "Квартал"
            },
            {
              "id": "zn-2216",
              "uId": "202-2216",
              "parents": "город Ташкент &raquo; Чиланзарский район",
              "name": "Чиланзар-9",
              "type_id": 2,
              "lat": "41.2883550",
              "lng": "69.1990050",
              "city_id": 202,
              "region_id": 13,
              "typeName": "Квартал"
            },
            {
              "id": "zn-2140",
              "uId": "203-2140",
              "parents": "город Ташкент &raquo; Учтепинский район",
              "name": "Чиланзар-9А",
              "type_id": 2,
              "lat": "41.2856040",
              "lng": "69.2023740",
              "city_id": 203,
              "region_id": 13,
              "typeName": "Квартал"
            },
            {
              "id": "zn-2226",
              "uId": "202-2226",
              "parents": "город Ташкент &raquo; Чиланзарский район",
              "name": "Чиланзар-Е",
              "type_id": 2,
              "lat": "41.2892830",
              "lng": "69.2229180",
              "city_id": 202,
              "region_id": 13,
              "typeName": "Квартал"
            },
            {
              "id": "zn-2227",
              "uId": "202-2227",
              "parents": "город Ташкент &raquo; Чиланзарский район",
              "name": "Чиланзар-И",
              "type_id": 2,
              "lat": "41.2939903",
              "lng": "69.2275314",
              "city_id": 202,
              "region_id": 13,
              "typeName": "Квартал"
            },
            {
              "id": "zn-2225",
              "uId": "202-2225",
              "parents": "город Ташкент &raquo; Чиланзарский район",
              "name": "Чиланзар-Ц",
              "type_id": 2,
              "lat": "41.2806440",
              "lng": "69.2050150",
              "city_id": 202,
              "region_id": 13,
              "typeName": "Квартал"
            }
          ]
        },
        "Ю": {
          "name": "Ю",
          "count": 19,
          "items": [
            {
              "id": "zn-2072",
              "uId": "197-2072",
              "parents": "город Ташкент &raquo; Юнусабадский район",
              "name": "Юнусабад-1",
              "type_id": 2,
              "lat": "41.3535240",
              "lng": "69.2870580",
              "city_id": 197,
              "region_id": 13,
              "typeName": "Квартал"
            },
            {
              "id": "zn-2081",
              "uId": "197-2081",
              "parents": "город Ташкент &raquo; Юнусабадский район",
              "name": "Юнусабад-10",
              "type_id": 2,
              "lat": "41.3821020",
              "lng": "69.2850820",
              "city_id": 197,
              "region_id": 13,
              "typeName": "Квартал"
            },
            {
              "id": "zn-2082",
              "uId": "197-2082",
              "parents": "город Ташкент &raquo; Юнусабадский район",
              "name": "Юнусабад-11",
              "type_id": 2,
              "lat": "41.3705380",
              "lng": "69.2899500",
              "city_id": 197,
              "region_id": 13,
              "typeName": "Квартал"
            },
            {
              "id": "zn-2083",
              "uId": "197-2083",
              "parents": "город Ташкент &raquo; Юнусабадский район",
              "name": "Юнусабад-12",
              "type_id": 2,
              "lat": "41.3776640",
              "lng": "69.2940380",
              "city_id": 197,
              "region_id": 13,
              "typeName": "Квартал"
            },
            {
              "id": "zn-2084",
              "uId": "197-2084",
              "parents": "город Ташкент &raquo; Юнусабадский район",
              "name": "Юнусабад-13",
              "type_id": 2,
              "lat": "41.3684470",
              "lng": "69.2977750",
              "city_id": 197,
              "region_id": 13,
              "typeName": "Квартал"
            },
            {
              "id": "zn-2085",
              "uId": "197-2085",
              "parents": "город Ташкент &raquo; Юнусабадский район",
              "name": "Юнусабад-14",
              "type_id": 2,
              "lat": "41.3720270",
              "lng": "69.3036860",
              "city_id": 197,
              "region_id": 13,
              "typeName": "Квартал"
            },
            {
              "id": "zn-2086",
              "uId": "197-2086",
              "parents": "город Ташкент &raquo; Юнусабадский район",
              "name": "Юнусабад-15",
              "type_id": 2,
              "lat": "41.3781910",
              "lng": "69.3013680",
              "city_id": 197,
              "region_id": 13,
              "typeName": "Квартал"
            },
            {
              "id": "zn-2087",
              "uId": "197-2087",
              "parents": "город Ташкент &raquo; Юнусабадский район",
              "name": "Юнусабад-16",
              "type_id": 2,
              "lat": "41.3827990",
              "lng": "69.3021590",
              "city_id": 197,
              "region_id": 13,
              "typeName": "Квартал"
            },
            {
              "id": "zn-2088",
              "uId": "197-2088",
              "parents": "город Ташкент &raquo; Юнусабадский район",
              "name": "Юнусабад-17",
              "type_id": 2,
              "lat": "41.3668500",
              "lng": "69.3099380",
              "city_id": 197,
              "region_id": 13,
              "typeName": "Квартал"
            },
            {
              "id": "zn-2089",
              "uId": "197-2089",
              "parents": "город Ташкент &raquo; Юнусабадский район",
              "name": "Юнусабад-18",
              "type_id": 2,
              "lat": "41.3697400",
              "lng": "69.3175920",
              "city_id": 197,
              "region_id": 13,
              "typeName": "Квартал"
            },
            {
              "id": "zn-2090",
              "uId": "197-2090",
              "parents": "город Ташкент &raquo; Юнусабадский район",
              "name": "Юнусабад-19",
              "type_id": 2,
              "lat": "41.3751330",
              "lng": "69.3159300",
              "city_id": 197,
              "region_id": 13,
              "typeName": "Квартал"
            },
            {
              "id": "zn-2073",
              "uId": "197-2073",
              "parents": "город Ташкент &raquo; Юнусабадский район",
              "name": "Юнусабад-2",
              "type_id": 2,
              "lat": "41.3626947",
              "lng": "69.2878796",
              "city_id": 197,
              "region_id": 13,
              "typeName": "Квартал"
            },
            {
              "id": "zn-2074",
              "uId": "197-2074",
              "parents": "город Ташкент &raquo; Юнусабадский район",
              "name": "Юнусабад-3",
              "type_id": 2,
              "lat": "41.3642720",
              "lng": "69.2929150",
              "city_id": 197,
              "region_id": 13,
              "typeName": "Квартал"
            },
            {
              "id": "zn-2075",
              "uId": "197-2075",
              "parents": "город Ташкент &raquo; Юнусабадский район",
              "name": "Юнусабад-4",
              "type_id": 2,
              "lat": "41.3614147",
              "lng": "69.2772017",
              "city_id": 197,
              "region_id": 13,
              "typeName": "Квартал"
            },
            {
              "id": "zn-2076",
              "uId": "197-2076",
              "parents": "город Ташкент &raquo; Юнусабадский район",
              "name": "Юнусабад-5",
              "type_id": 2,
              "lat": "41.3615040",
              "lng": "69.2747870",
              "city_id": 197,
              "region_id": 13,
              "typeName": "Квартал"
            },
            {
              "id": "zn-2077",
              "uId": "197-2077",
              "parents": "город Ташкент &raquo; Юнусабадский район",
              "name": "Юнусабад-6",
              "type_id": 2,
              "lat": "41.3686100",
              "lng": "69.2645460",
              "city_id": 197,
              "region_id": 13,
              "typeName": "Квартал"
            },
            {
              "id": "zn-2078",
              "uId": "197-2078",
              "parents": "город Ташкент &raquo; Юнусабадский район",
              "name": "Юнусабад-7",
              "type_id": 2,
              "lat": "41.3757824",
              "lng": "69.2654389",
              "city_id": 197,
              "region_id": 13,
              "typeName": "Квартал"
            },
            {
              "id": "zn-2079",
              "uId": "197-2079",
              "parents": "город Ташкент &raquo; Юнусабадский район",
              "name": "Юнусабад-8",
              "type_id": 2,
              "lat": "41.3708970",
              "lng": "69.2809850",
              "city_id": 197,
              "region_id": 13,
              "typeName": "Квартал"
            },
            {
              "id": "zn-2080",
              "uId": "197-2080",
              "parents": "город Ташкент &raquo; Юнусабадский район",
              "name": "Юнусабад-9",
              "type_id": 2,
              "lat": "41.3769330",
              "lng": "69.2780030",
              "city_id": 197,
              "region_id": 13,
              "typeName": "Квартал"
            }
          ]
        },
        "ѐ": {
          "name": "Другие",
          "count": 1,
          "items": [
            {
              "id": "zn-10446",
              "uId": "199-10446",
              "parents": "город Ташкент &raquo; Олмазорский район",
              "name": "2\/2",
              "type_id": 2,
              "lat": "41.3595000",
              "lng": "69.2182830",
              "city_id": 199,
              "region_id": 13,
              "typeName": "Квартал"
            }
          ]
        }
      }
    },
    "z-30": {
      "name": "Махалля",
      "count": 578,
      "letterTabs": [
        "А",
        "Б",
        "В",
        "Г",
        "Д",
        "Ё",
        "Ж",
        "З",
        "И",
        "Й",
        "К",
        "Л",
        "М",
        "Н",
        "О",
        "П",
        "Р",
        "С",
        "Т",
        "У",
        "Ў",
        "Ф",
        "Х",
        "Ч",
        "Ш",
        "Э",
        "Ю",
        "Я"
      ],
      "letters": {
        "А": {
          "name": "А",
          "count": 46,
          "items": [
            {
              "id": "zn-3701",
              "uId": "198-3701",
              "parents": "город Ташкент &raquo; Шайхантахурский район &raquo; Махалля",
              "name": "Абиназир",
              "type_id": 5,
              "lat": "41.3252920",
              "lng": "69.2203580",
              "city_id": 198,
              "region_id": 13,
              "typeName": "Махалля"
            },
            {
              "id": "zn-4903",
              "uId": "203-4903",
              "parents": "город Ташкент &raquo; Учтепинский район &raquo; Махалля",
              "name": "Ак-Масжид",
              "type_id": 5,
              "lat": "41.3084350",
              "lng": "69.1585900",
              "city_id": 203,
              "region_id": 13,
              "typeName": "Махалля"
            },
            {
              "id": "zn-4108",
              "uId": "202-4108",
              "parents": "город Ташкент &raquo; Чиланзарский район &raquo; Махалля",
              "name": "Актепа",
              "type_id": 5,
              "lat": "41.2960920",
              "lng": "69.2131800",
              "city_id": 202,
              "region_id": 13,
              "typeName": "Махалля"
            },
            {
              "id": "zn-6047",
              "uId": "200-6047",
              "parents": "город Ташкент &raquo; Яшнободский район &raquo; Махалля",
              "name": "Ал-Бухорий",
              "type_id": 5,
              "lat": "41.2928200",
              "lng": "69.3685980",
              "city_id": 200,
              "region_id": 13,
              "typeName": "Махалля"
            },
            {
              "id": "zn-3503",
              "uId": "206-3503",
              "parents": "город Ташкент &raquo; Сергелийский район &raquo; Махалля",
              "name": "Ал-Фаргоний",
              "type_id": 5,
              "lat": "41.2056740",
              "lng": "69.2297810",
              "city_id": 206,
              "region_id": 13,
              "typeName": "Махалля"
            },
            {
              "id": "zn-3550",
              "uId": "196-3550",
              "parents": "город Ташкент &raquo; Мирзо-Улугбекский район &raquo; Махалля",
              "name": "Алишер Навоий",
              "type_id": 5,
              "lat": "41.3285420",
              "lng": "69.3582130",
              "city_id": 196,
              "region_id": 13,
              "typeName": "Махалля"
            },
            {
              "id": "zn-3793",
              "uId": "204-3793",
              "parents": "город Ташкент &raquo; Мирабадский район &raquo; Махалля",
              "name": "Алтынкуль",
              "type_id": 5,
              "lat": "41.2731420",
              "lng": "69.3057790",
              "city_id": 204,
              "region_id": 13,
              "typeName": "Махалля"
            },
            {
              "id": "zn-3787",
              "uId": "200-3787",
              "parents": "город Ташкент &raquo; Яшнободский район &raquo; Махалля",
              "name": "Амир Темур",
              "type_id": 5,
              "lat": "41.3020540",
              "lng": "69.3521950",
              "city_id": 200,
              "region_id": 13,
              "typeName": "Махалля"
            },
            {
              "id": "zn-4318",
              "uId": "197-4318",
              "parents": "город Ташкент &raquo; Юнусабадский район &raquo; Махалля",
              "name": "Анорзор",
              "type_id": 5,
              "lat": "41.3562110",
              "lng": "69.2820360",
              "city_id": 197,
              "region_id": 13,
              "typeName": "Махалля"
            },
            {
              "id": "zn-12291",
              "uId": "206-12291",
              "parents": "город Ташкент &raquo; Сергелийский район &raquo; Махалля",
              "name": "Астрабад",
              "type_id": 5,
              "lat": "41.2454990",
              "lng": "69.2712030",
              "city_id": 206,
              "region_id": 13,
              "typeName": "Махалля"
            },
            {
              "id": "zn-265",
              "uId": "196-265",
              "parents": "город Ташкент &raquo; Мирзо-Улугбекский район &raquo; Махалля",
              "name": "А.Навоий",
              "type_id": 5,
              "lat": "41.3285420",
              "lng": "69.3582130",
              "city_id": 196,
              "region_id": 13,
              "typeName": "Махалля"
            },
            {
              "id": "zn-465",
              "uId": "200-465",
              "parents": "город Ташкент &raquo; Яшнободский район &raquo; Махалля",
              "name": "А.Темур",
              "type_id": 5,
              "lat": "41.3020540",
              "lng": "69.3521950",
              "city_id": 200,
              "region_id": 13,
              "typeName": "Махалля"
            },
            {
              "id": "zn-295",
              "uId": "200-295",
              "parents": "город Ташкент &raquo; Яшнободский район &raquo; Махалля",
              "name": "А.Яссавий",
              "type_id": 5,
              "lat": "41.3289270",
              "lng": "69.3234380",
              "city_id": 200,
              "region_id": 13,
              "typeName": "Махалля"
            },
            {
              "id": "zn-473",
              "uId": "201-473",
              "parents": "город Ташкент &raquo; Бектемирский район &raquo; Махалля",
              "name": "Абай",
              "type_id": 5,
              "lat": "41.2397220",
              "lng": "69.3548810",
              "city_id": 201,
              "region_id": 13,
              "typeName": "Махалля"
            },
            {
              "id": "zn-190",
              "uId": "204-190",
              "parents": "город Ташкент &raquo; Мирабадский район &raquo; Махалля",
              "name": "Абдулла Авлоний",
              "type_id": 5,
              "lat": "41.2932940",
              "lng": "69.2746970",
              "city_id": 204,
              "region_id": 13,
              "typeName": "Махалля"
            },
            {
              "id": "zn-279",
              "uId": "205-279",
              "parents": "город Ташкент &raquo; Яккасарайский район &raquo; Махалля",
              "name": "Абдулла Каххор",
              "type_id": 5,
              "lat": "41.2852850",
              "lng": "69.2580780",
              "city_id": 205,
              "region_id": 13,
              "typeName": "Махалля"
            },
            {
              "id": "zn-365",
              "uId": "203-365",
              "parents": "город Ташкент &raquo; Учтепинский район &raquo; Махалля",
              "name": "Абдулла Кодирий",
              "type_id": 5,
              "lat": "41.3089290",
              "lng": "69.1754600",
              "city_id": 203,
              "region_id": 13,
              "typeName": "Махалля"
            },
            {
              "id": "zn-193",
              "uId": "204-193",
              "parents": "город Ташкент &raquo; Мирабадский район &raquo; Махалля",
              "name": "Абдурауф Фитрат",
              "type_id": 5,
              "lat": "41.2736500",
              "lng": "69.2974870",
              "city_id": 204,
              "region_id": 13,
              "typeName": "Махалля"
            },
            {
              "id": "zn-328",
              "uId": "199-328",
              "parents": "город Ташкент &raquo; Олмазорский район &raquo; Махалля",
              "name": "Абу Бакр Шоший",
              "type_id": 5,
              "lat": "41.3356990",
              "lng": "69.2361050",
              "city_id": 199,
              "region_id": 13,
              "typeName": "Махалля"
            },
            {
              "id": "zn-23",
              "uId": "196-23",
              "parents": "город Ташкент &raquo; Мирзо-Улугбекский район &raquo; Махалля",
              "name": "Авайхон",
              "type_id": 5,
              "lat": "41.3159870",
              "lng": "69.3475590",
              "city_id": 196,
              "region_id": 13,
              "typeName": "Махалля"
            },
            {
              "id": "zn-294",
              "uId": "200-294",
              "parents": "город Ташкент &raquo; Яшнободский район &raquo; Махалля",
              "name": "Авиасозлар",
              "type_id": 5,
              "lat": "41.2896220",
              "lng": "69.3413700",
              "city_id": 200,
              "region_id": 13,
              "typeName": "Махалля"
            },
            {
              "id": "zn-86",
              "uId": "197-86",
              "parents": "город Ташкент &raquo; Юнусабадский район &raquo; Махалля",
              "name": "Адолат",
              "type_id": 5,
              "lat": "41.3628980",
              "lng": "69.2793770",
              "city_id": 197,
              "region_id": 13,
              "typeName": "Махалля"
            },
            {
              "id": "zn-455",
              "uId": "196-455",
              "parents": "город Ташкент &raquo; Мирзо-Улугбекский район &raquo; Махалля",
              "name": "Азамат",
              "type_id": 5,
              "lat": "41.3618150",
              "lng": "69.3888550",
              "city_id": 196,
              "region_id": 13,
              "typeName": "Махалля"
            },
            {
              "id": "zn-38",
              "uId": "197-38",
              "parents": "город Ташкент &raquo; Юнусабадский район &raquo; Махалля",
              "name": "Акбаробод",
              "type_id": 5,
              "lat": "41.3628710",
              "lng": "69.2940110",
              "city_id": 197,
              "region_id": 13,
              "typeName": "Махалля"
            },
            {
              "id": "zn-468",
              "uId": "200-468",
              "parents": "город Ташкент &raquo; Яшнободский район &raquo; Махалля",
              "name": "Ал Бухорий",
              "type_id": 5,
              "lat": "41.2928200",
              "lng": "69.3685980",
              "city_id": 200,
              "region_id": 13,
              "typeName": "Махалля"
            },
            {
              "id": "zn-231",
              "uId": "206-231",
              "parents": "город Ташкент &raquo; Сергелийский район &raquo; Махалля",
              "name": "Ал Фаргоний",
              "type_id": 5,
              "lat": "41.2056740",
              "lng": "69.2297810",
              "city_id": 206,
              "region_id": 13,
              "typeName": "Махалля"
            },
            {
              "id": "zn-273",
              "uId": "196-273",
              "parents": "город Ташкент &raquo; Мирзо-Улугбекский район &raquo; Махалля",
              "name": "Ал-Фаробий",
              "type_id": 5,
              "lat": "41.3458200",
              "lng": "69.3875430",
              "city_id": 196,
              "region_id": 13,
              "typeName": "Махалля"
            },
            {
              "id": "zn-17",
              "uId": "202-17",
              "parents": "город Ташкент &raquo; Чиланзарский район &raquo; Махалля",
              "name": "Ал-Хоразмий",
              "type_id": 5,
              "lat": "41.2611520",
              "lng": "69.1527960",
              "city_id": 202,
              "region_id": 13,
              "typeName": "Махалля"
            },
            {
              "id": "zn-14",
              "uId": "200-14",
              "parents": "город Ташкент &raquo; Яшнободский район &raquo; Махалля",
              "name": "Алимкент",
              "type_id": 5,
              "lat": "41.2944800",
              "lng": "69.3365550",
              "city_id": 200,
              "region_id": 13,
              "typeName": "Махалля"
            },
            {
              "id": "zn-227",
              "uId": "203-227",
              "parents": "город Ташкент &raquo; Учтепинский район &raquo; Махалля",
              "name": "Алихонтура Согуний",
              "type_id": 5,
              "lat": "41.2693740",
              "lng": "69.1552120",
              "city_id": 203,
              "region_id": 13,
              "typeName": "Махалля"
            },
            {
              "id": "zn-169",
              "uId": "199-169",
              "parents": "город Ташкент &raquo; Олмазорский район &raquo; Махалля",
              "name": "Аллон",
              "type_id": 5,
              "lat": "41.3434920",
              "lng": "69.2152200",
              "city_id": 199,
              "region_id": 13,
              "typeName": "Махалля"
            },
            {
              "id": "zn-267",
              "uId": "196-267",
              "parents": "город Ташкент &raquo; Мирзо-Улугбекский район &raquo; Махалля",
              "name": "Алпомиш",
              "type_id": 5,
              "lat": "41.3317380",
              "lng": "69.3428970",
              "city_id": 196,
              "region_id": 13,
              "typeName": "Махалля"
            },
            {
              "id": "zn-164",
              "uId": "197-164",
              "parents": "город Ташкент &raquo; Юнусабадский район &raquo; Махалля",
              "name": "Анарзор",
              "type_id": 5,
              "lat": "41.3562110",
              "lng": "69.2820360",
              "city_id": 197,
              "region_id": 13,
              "typeName": "Махалля"
            },
            {
              "id": "zn-287",
              "uId": "205-287",
              "parents": "город Ташкент &raquo; Яккасарайский район &raquo; Махалля",
              "name": "Армугон",
              "type_id": 5,
              "lat": "41.2691970",
              "lng": "69.2557160",
              "city_id": 205,
              "region_id": 13,
              "typeName": "Махалля"
            },
            {
              "id": "zn-53",
              "uId": "196-53",
              "parents": "город Ташкент &raquo; Мирзо-Улугбекский район &raquo; Махалля",
              "name": "Асака",
              "type_id": 5,
              "lat": "41.3163520",
              "lng": "69.3006490",
              "city_id": 196,
              "region_id": 13,
              "typeName": "Махалля"
            },
            {
              "id": "zn-290",
              "uId": "200-290",
              "parents": "город Ташкент &raquo; Яшнободский район &raquo; Махалля",
              "name": "Асалобод",
              "type_id": 5,
              "lat": "41.2801420",
              "lng": "69.3381090",
              "city_id": 200,
              "region_id": 13,
              "typeName": "Махалля"
            },
            {
              "id": "zn-167",
              "uId": "197-167",
              "parents": "город Ташкент &raquo; Юнусабадский район &raquo; Махалля",
              "name": "Астробод",
              "type_id": 5,
              "lat": "41.3703280",
              "lng": "69.2713370",
              "city_id": 197,
              "region_id": 13,
              "typeName": "Махалля"
            },
            {
              "id": "zn-484",
              "uId": "206-484",
              "parents": "город Ташкент &raquo; Сергелийский район &raquo; Махалля",
              "name": "Астробод",
              "type_id": 5,
              "lat": "41.2454990",
              "lng": "69.2712030",
              "city_id": 206,
              "region_id": 13,
              "typeName": "Махалля"
            },