{"data":{"cities":{"name":"Район","count":22,"letters":{"1":{"items":[{"id":"ct-133","uId":133,"parents":"Ташкентская область &raquo; Город","name":"Аккурганский район","lat":"40.8193830","lng":"69.0029570","region_id":12},{"id":"ct-147","uId":147,"parents":"Ташкентская область &raquo; Город","name":"Алмалык","lat":"40.8458840","lng":"69.6071010","region_id":12},{"id":"ct-148","uId":148,"parents":"Ташкентская область &raquo; Город","name":"Ангрен","lat":"41.0126540","lng":"70.0853010","region_id":12},{"id":"ct-134","uId":134,"parents":"Ташкентская область &raquo; Город","name":"Ахангаранский район","lat":"40.9803110","lng":"69.8669920","region_id":12},{"id":"ct-149","uId":149,"parents":"Ташкентская область &raquo; Город","name":"Бекабад","lat":"40.2176990","lng":"69.2657950","region_id":12},{"id":"ct-135","uId":135,"parents":"Ташкентская область &raquo; Город","name":"Бекабадский район","lat":"40.3910340","lng":"69.2000290","region_id":12},{"id":"ct-136","uId":136,"parents":"Ташкентская область &raquo; Город","name":"Бостанлыкский район","lat":"41.5716030","lng":"69.9393430","region_id":12},{"id":"ct-137","uId":137,"parents":"Ташкентская область &raquo; Город","name":"Букинский район","lat":"40.7259380","lng":"69.1911000","region_id":12},{"id":"ct-624","uId":624,"parents":"Ташкентская область &raquo; Город","name":"город областного подчинения Бекабад","lat":"40.2202610","lng":"69.2481340","region_id":12},{"id":"ct-138","uId":138,"parents":"Ташкентская область &raquo; Город","name":"Зангиатинский район","lat":"41.2605210","lng":"69.0856650","region_id":12},{"id":"ct-139","uId":139,"parents":"Ташкентская область &raquo; Город","name":"Кибрайский район","lat":"41.4287010","lng":"69.4883430","region_id":12},{"id":"ct-140","uId":140,"parents":"Ташкентская область &raquo; Город","name":"Куйичирчикский район","lat":"40.9344110","lng":"68.9977280","region_id":12},{"id":"ct-207","uId":207,"parents":"Ташкентская область &raquo; Город","name":"Нурафшан","lat":"41.0427090","lng":"69.3576120","region_id":12},{"id":"ct-141","uId":141,"parents":"Ташкентская область &raquo; Город","name":"Паркентский район","lat":"41.2578780","lng":"69.7519990","region_id":12},{"id":"ct-142","uId":142,"parents":"Ташкентская область &raquo; Город","name":"Пскентский район","lat":"40.8338430","lng":"69.4821630","region_id":12},{"id":"ct-437","uId":437,"parents":"Ташкентская область &raquo; Город","name":"Ташкентский район","lat":"41.4294050","lng":"69.2345150","region_id":12},{"id":"ct-143","uId":143,"parents":"Ташкентская область &raquo; Город","name":"Уртачирчикский район","lat":"41.0570240","lng":"69.3077820","region_id":12},{"id":"ct-144","uId":144,"parents":"Ташкентская область &raquo; Город","name":"Чиназский район","lat":"40.9993360","lng":"68.8259260","region_id":12},{"id":"ct-150","uId":150,"parents":"Ташкентская область &raquo; Город","name":"Чирчик","lat":"41.4726590","lng":"69.5812290","region_id":12},{"id":"ct-495","uId":495,"parents":"Ташкентская область &raquo; Город","name":"Юкарычирчикский район","lat":"41.1873810","lng":"69.4980810","region_id":12},{"id":"ct-145","uId":145,"parents":"Ташкентская область &raquo; Город","name":"Юкоричирчикский район","lat":"41.1873810","lng":"69.4980810","region_id":12},{"id":"ct-146","uId":146,"parents":"Ташкентская область &raquo; Город","name":"Янгиюльский район","lat":"41.1285450","lng":"68.9959590","region_id":12}]}},"letterTabs":[1]},"z-40":{"name":"Улица","count":43,"letterTabs":["А","Б","К","М","Н","П","Р","С","Т","У","Ф","Х","Э","Я"],"letters":{"А":{"name":"А","count":7,"items":[{"id":"zn-9010","uId":"437-9010","parents":"Ташкентская область &raquo; Ташкентский район &raquo; Улица","name":"Анжиробод","type_id":3,"lat":"41.4139200","lng":"69.3125970","city_id":437,"region_id":12,"typeName":"Улица"},{"id":"zn-5383","uId":"150-5383","parents":"Ташкентская область &raquo; Чирчик &raquo; Улица","name":"проспект Алишера Навои","type_id":3,"lat":"41.4602060","lng":"69.5744740","city_id":150,"region_id":12,"typeName":"Улица"},{"id":"zn-521","uId":"139-521","parents":"Ташкентская область &raquo; Кибрайский район &raquo; Улица","name":"Абдуллаева","type_id":3,"lat":"41.3448790","lng":"69.1886380","city_id":139,"region_id":12,"typeName":"Улица"},{"id":"zn-546","uId":"139-546","parents":"Ташкентская область &raquo; Кибрайский район &raquo; Улица","name":"Азима Умарова","type_id":3,"lat":"41.2384670","lng":"69.2094070","city_id":139,"region_id":12,"typeName":"Улица"},{"id":"zn-550","uId":"139-550","parents":"Ташкентская область &raquo; Кибрайский район &raquo; Улица","name":"Академика Фахрудинова","type_id":3,"lat":"41.3616050","lng":"69.3553930","city_id":139,"region_id":12,"typeName":"Улица"},{"id":"zn-595","uId":"139-595","parents":"Ташкентская область &raquo; Кибрайский район &raquo; Улица","name":"Ахил","type_id":3,"lat":"41.3280410","lng":"69.1994180","city_id":139,"region_id":12,"typeName":"Улица"},{"id":"zn-603","uId":"139-603","parents":"Ташкентская область &raquo; Кибрайский район &raquo; Улица","name":"Ахунбабаева","type_id":3,"lat":"40.3878610","lng":"71.7749510","city_id":139,"region_id":12,"typeName":"Улица"}]},"Б":{"name":"Б","count":11,"items":[{"id":"zn-10411","uId":"437-10411","parents":"Ташкентская область &raquo; Ташкентский район &raquo; Улица","name":"1-й тупик Бирдамлик","type_id":3,"lat":"41.4140760","lng":"69.3239610","city_id":437,"region_id":12,"typeName":"Улица"},{"id":"zn-10408","uId":"437-10408","parents":"Ташкентская область &raquo; Ташкентский район &raquo; Улица","name":"2-й тупик Бирдамлик","type_id":3,"lat":"41.4140150","lng":"69.3250120","city_id":437,"region_id":12,"typeName":"Улица"},{"id":"zn-10407","uId":"437-10407","parents":"Ташкентская область &raquo; Ташкентский район &raquo; Улица","name":"3-й тупик Бирдамлик","type_id":3,"lat":"41.4141170","lng":"69.3260810","city_id":437,"region_id":12,"typeName":"Улица"},{"id":"zn-10409","uId":"437-10409","parents":"Ташкентская область &raquo; Ташкентский район &raquo; Улица","name":"5-й тупик Бирдамлик","type_id":3,"lat":"41.4143060","lng":"69.3280750","city_id":437,"region_id":12,"typeName":"Улица"},{"id":"zn-10406","uId":"437-10406","parents":"Ташкентская область &raquo; Ташкентский район &raquo; Улица","name":"7-й тупик Бирдамлик","type_id":3,"lat":"41.4145560","lng":"69.3300690","city_id":437,"region_id":12,"typeName":"Улица"},{"id":"zn-14728","uId":"147-14728","parents":"Ташкентская область &raquo; Алмалык &raquo; Улица","name":"Бабушкина","type_id":3,"lat":"40.8398670","lng":"69.6166140","city_id":147,"region_id":12,"typeName":"Улица"},{"id":"zn-610","uId":"139-610","parents":"Ташкентская область &raquo; Кибрайский район &raquo; Улица","name":"Бабаханова","type_id":3,"lat":"41.3625660","lng":"69.3567580","city_id":139,"region_id":12,"typeName":"Улица"},{"id":"zn-611","uId":"139-611","parents":"Ташкентская область &raquo; Кибрайский район &raquo; Улица","name":"Бабура","type_id":3,"lat":"41.2846690","lng":"69.2540450","city_id":139,"region_id":12,"typeName":"Улица"},{"id":"zn-635","uId":"139-635","parents":"Ташкентская область &raquo; Кибрайский район &raquo; Улица","name":"Бахор","type_id":3,"lat":"41.3323540","lng":"69.1501010","city_id":139,"region_id":12,"typeName":"Улица"},{"id":"zn-638","uId":"139-638","parents":"Ташкентская область &raquo; Кибрайский район &raquo; Улица","name":"Бахт","type_id":3,"lat":"41.2874810","lng":"69.2640610","city_id":139,"region_id":12,"typeName":"Улица"},{"id":"zn-644","uId":"139-644","parents":"Ташкентская область &raquo; Кибрайский район &raquo; Улица","name":"Бегойим","type_id":3,"lat":"41.3777720","lng":"69.2028050","city_id":139,"region_id":12,"typeName":"Улица"}]},"К":{"name":"К","count":4,"items":[{"id":"zn-10961","uId":"138-10961","parents":"Ташкентская область &raquo; Зангиатинский район &raquo; Улица","name":"4К713а","type_id":3,"lat":"41.2798040","lng":"69.0844250","city_id":138,"region_id":12,"typeName":"Улица"},{"id":"zn-4527","uId":"146-4527","parents":"Ташкентская область &raquo; Янгиюльский район &raquo; Улица","name":"К-743","type_id":3,"lat":"41.1651860","lng":"69.0832840","city_id":146,"region_id":12,"typeName":"Улица"},{"id":"zn-5942","uId":"150-5942","parents":"Ташкентская область &raquo; Чирчик &raquo; Улица","name":"Кангли","type_id":3,"lat":"41.4303240","lng":"69.5391250","city_id":150,"region_id":12,"typeName":"Улица"},{"id":"zn-12628","uId":"139-12628","parents":"Ташкентская область &raquo; Кибрайский район &raquo; Улица","name":"Курогони","type_id":3,"lat":"41.4044660","lng":"69.4503450","city_id":139,"region_id":12,"typeName":"Улица"}]},"М":{"name":"М","count":2,"items":[{"id":"zn-10405","uId":"437-10405","parents":"Ташкентская область &raquo; Ташкентский район &raquo; Улица","name":"М. Юсуфа","type_id":3,"lat":"41.4138800","lng":"69.3213020","city_id":437,"region_id":12,"typeName":"Улица"},{"id":"zn-10709","uId":"150-10709","parents":"Ташкентская область &raquo; Чирчик &raquo; Улица","name":"Менделеева","type_id":3,"lat":"41.4644640","lng":"69.5822440","city_id":150,"region_id":12,"typeName":"Улица"}]},"Н":{"name":"Н","count":2,"items":[{"id":"zn-14734","uId":"147-14734","parents":"Ташкентская область &raquo; Алмалык &raquo; Улица","name":"Наследова","type_id":3,"lat":"40.8353710","lng":"69.6153470","city_id":147,"region_id":12,"typeName":"Улица"},{"id":"zn-5385","uId":"150-5385","parents":"Ташкентская область &raquo; Чирчик &raquo; Улица","name":"Новбахор","type_id":3,"lat":"41.4658350","lng":"69.5751480","city_id":150,"region_id":12,"typeName":"Улица"}]},"П":{"name":"П","count":2,"items":[{"id":"zn-8403","uId":"148-8403","parents":"Ташкентская область &raquo; Ангрен &raquo; Улица","name":"Профессора Чикрызова","type_id":3,"lat":"41.0076730","lng":"70.0748350","city_id":148,"region_id":12,"typeName":"Улица"},{"id":"zn-11551","uId":"150-11551","parents":"Ташкентская область &raquo; Чирчик &raquo; Улица","name":"Профсоюзная","type_id":3,"lat":"41.4725240","lng":"69.5781750","city_id":150,"region_id":12,"typeName":"Улица"}]},"Р":{"name":"Р","count":6,"items":[{"id":"zn-9785","uId":"136-9785","parents":"Ташкентская область &raquo; Бостанлыкский район &raquo; Улица","name":"4Р10","type_id":3,"lat":"41.6557100","lng":"70.0230120","city_id":136,"region_id":12,"typeName":"Улица"},{"id":"zn-14834","uId":"134-14834","parents":"Ташкентская область &raquo; Ахангаранский район &raquo; Улица","name":"4Р2","type_id":3,"lat":"40.9982270","lng":"69.4278240","city_id":134,"region_id":12,"typeName":"Улица"},{"id":"zn-8308","uId":"140-8308","parents":"Ташкентская область &raquo; Куйичирчикский район &raquo; Улица","name":"4Р21 Тошкент айланма йули","type_id":3,"lat":"41.1642630","lng":"69.2655250","city_id":140,"region_id":12,"typeName":"Улица"},{"id":"zn-12231","uId":"150-12231","parents":"Ташкентская область &raquo; Чирчик &raquo; Улица","name":"Рамазан","type_id":3,"lat":"41.4433850","lng":"69.5631460","city_id":150,"region_id":12,"typeName":"Улица"},{"id":"zn-14723","uId":"147-14723","parents":"Ташкентская область &raquo; Алмалык &raquo; Улица","name":"Рамазанова","type_id":3,"lat":"40.8432850","lng":"69.6046030","city_id":147,"region_id":12,"typeName":"Улица"},{"id":"zn-10711","uId":"150-10711","parents":"Ташкентская область &raquo; Чирчик &raquo; Улица","name":"Розита","type_id":3,"lat":"41.4983960","lng":"69.6102270","city_id":150,"region_id":12,"typeName":"Улица"}]},"С":{"name":"С","count":1,"items":[{"id":"zn-14729","uId":"147-14729","parents":"Ташкентская область &raquo; Алмалык &raquo; Улица","name":"Сунбула","type_id":3,"lat":"40.8405290","lng":"69.6142420","city_id":147,"region_id":12,"typeName":"Улица"}]},"Т":{"name":"Т","count":3,"items":[{"id":"zn-15500","uId":"150-15500","parents":"Ташкентская область &raquo; Чирчик &raquo; Улица","name":"Ташкентская","type_id":3,"lat":"41.2529630","lng":"69.4317410","city_id":150,"region_id":12,"typeName":"Улица"},{"id":"zn-10410","uId":"437-10410","parents":"Ташкентская область &raquo; Ташкентский район &raquo; Улица","name":"Темур Малика","type_id":3,"lat":"41.4143800","lng":"69.3144120","city_id":437,"region_id":12,"typeName":"Улица"},{"id":"zn-12970","uId":"150-12970","parents":"Ташкентская область &raquo; Чирчик &raquo; Улица","name":"Троицкий мост","type_id":3,"lat":"41.4351650","lng":"69.5447130","city_id":150,"region_id":12,"typeName":"Улица"}]},"У":{"name":"У","count":1,"items":[{"id":"zn-10246","uId":"148-10246","parents":"Ташкентская область &raquo; Ангрен &raquo; Улица","name":"Узбекистон Мустакиллиги","type_id":3,"lat":"41.0145050","lng":"70.0728500","city_id":148,"region_id":12,"typeName":"Улица"}]},"Ф":{"name":"Ф","count":1,"items":[{"id":"zn-14726","uId":"147-14726","parents":"Ташкентская область &raquo; Алмалык &raquo; Улица","name":"Фахрийлар","type_id":3,"lat":"40.8383730","lng":"69.6155180","city_id":147,"region_id":12,"typeName":"Улица"}]},"Х":{"name":"Х","count":1,"items":[{"id":"zn-10404","uId":"150-10404","parents":"Ташкентская область &raquo; Чирчик &raquo; Улица","name":"Хурлик","type_id":3,"lat":"41.4995030","lng":"69.6050260","city_id":150,"region_id":12,"typeName":"Улица"}]},"Э":{"name":"Э","count":1,"items":[{"id":"zn-11550","uId":"150-11550","parents":"Ташкентская область &raquo; Чирчик &raquo; Улица","name":"проспект Эмира Тимура","type_id":3,"lat":"41.4749700","lng":"69.5743480","city_id":150,"region_id":12,"typeName":"Улица"}]},"Я":{"name":"Я","count":1,"items":[{"id":"zn-2019","uId":"139-2019","parents":"Ташкентская область &raquo; Кибрайский район &raquo; Улица","name":"Янгихаёт","type_id":3,"lat":"41.2399250","lng":"69.3823510","city_id":139,"region_id":12,"typeName":"Улица"}]}}},"z-60":{"name":"Село","count":100,"letterTabs":["А","Б","Г","Д","Е","З","И","К","М","Н","П","С","Т","У","Х","Ч","Ш","Э","Ю","Я"],"letters":{"А":{"name":"А","count":8,"items":[{"id":"zn-2989","uId":"139-2989","parents":"Ташкентская область &raquo; Кибрайский район","name":"А-Навоий","type_id":7,"lat":null,"lng":null,"city_id":139,"region_id":12,"typeName":"Село"},{"id":"zn-3002","uId":"138-3002","parents":"Ташкентская область &raquo; Зангиатинский район","name":"А-Навоий","type_id":7,"lat":null,"lng":null,"city_id":138,"region_id":12,"typeName":"Село"},{"id":"zn-3021","uId":"144-3021","parents":"Ташкентская область &raquo; Чиназский район","name":"А-Темур","type_id":7,"lat":"41.0302070","lng":"68.9384220","city_id":144,"region_id":12,"typeName":"Село"},{"id":"zn-2938","uId":"133-2938","parents":"Ташкентская область &raquo; Аккурганский район","name":"Алимкент","type_id":7,"lat":"40.9585230","lng":"69.1643570","city_id":133,"region_id":12,"typeName":"Село"},{"id":"zn-2992","uId":"139-2992","parents":"Ташкентская область &raquo; Кибрайский район","name":"Алишерабад","type_id":7,"lat":null,"lng":null,"city_id":139,"region_id":12,"typeName":"Село"},{"id":"zn-3015","uId":"144-3015","parents":"Ташкентская область &raquo; Чиназский район","name":"Алмазар","type_id":7,"lat":"40.9679880","lng":"68.8538630","city_id":144,"region_id":12,"typeName":"Село"},{"id":"zn-2984","uId":"139-2984","parents":"Ташкентская область &raquo; Кибрайский район","name":"Аргин","type_id":7,"lat":"41.3785500","lng":"69.4282460","city_id":139,"region_id":12,"typeName":"Село"},{"id":"zn-2968","uId":"138-2968","parents":"Ташкентская область &raquo; Зангиатинский район","name":"Ахмад-яссавий","type_id":7,"lat":"41.1845240","lng":"69.4438770","city_id":138,"region_id":12,"typeName":"Село"}]},"Б":{"name":"Б","count":4,"items":[{"id":"zn-2946","uId":"135-2946","parents":"Ташкентская область &raquo; Бекабадский район","name":"Бабур","type_id":7,"lat":"40.2555220","lng":"69.2484030","city_id":135,"region_id":12,"typeName":"Село"},{"id":"zn-3020","uId":"144-3020","parents":"Ташкентская область &raquo; Чиназский район","name":"Бирлик","type_id":7,"lat":"41.0151240","lng":"68.8342440","city_id":144,"region_id":12,"typeName":"Село"},{"id":"zn-3028","uId":"146-3028","parents":"Ташкентская область &raquo; Янгиюльский район","name":"Бозсу","type_id":7,"lat":"41.1275060","lng":"68.8507550","city_id":146,"region_id":12,"typeName":"Село"},{"id":"zn-2956","uId":"136-2956","parents":"Ташкентская область &raquo; Бостанлыкский район","name":"Бурчмилла","type_id":7,"lat":"41.6000310","lng":"70.1011830","city_id":136,"region_id":12,"typeName":"Село"}]},"Г":{"name":"Г","count":3,"items":[{"id":"zn-2991","uId":"139-2991","parents":"Ташкентская область &raquo; Кибрайский район","name":"Геофизика","type_id":7,"lat":"41.3368160","lng":"69.3846690","city_id":139,"region_id":12,"typeName":"Село"},{"id":"zn-3027","uId":"146-3027","parents":"Ташкентская область &raquo; Янгиюльский район","name":"Гулбахор","type_id":7,"lat":"41.0760940","lng":"69.0276330","city_id":146,"region_id":12,"typeName":"Село"},{"id":"zn-3017","uId":"144-3017","parents":"Ташкентская область &raquo; Чиназский район","name":"Гулзарабад","type_id":7,"lat":"40.9594900","lng":"68.7627920","city_id":144,"region_id":12,"typeName":"Село"}]},"Д":{"name":"Д","count":3,"items":[{"id":"zn-2972","uId":"138-2972","parents":"Ташкентская область &raquo; Зангиатинский район","name":"Далигузар","type_id":7,"lat":"41.2422370","lng":"69.1409830","city_id":138,"region_id":12,"typeName":"Село"},{"id":"zn-2983","uId":"139-2983","parents":"Ташкентская область &raquo; Кибрайский район","name":"Дурмен","type_id":7,"lat":"41.3649210","lng":"69.4118700","city_id":139,"region_id":12,"typeName":"Село"},{"id":"zn-3018","uId":"144-3018","parents":"Ташкентская область &raquo; Чиназский район","name":"Дустлик","type_id":7,"lat":"40.5288630","lng":"68.7791230","city_id":144,"region_id":12,"typeName":"Село"}]},"Е":{"name":"Е","count":3,"items":[{"id":"zn-2942","uId":"134-2942","parents":"Ташкентская область &raquo; Ахангаранский район","name":"Ейвалек","type_id":7,"lat":"40.9439890","lng":"69.5263420","city_id":134,"region_id":12,"typeName":"Село"},{"id":"zn-2941","uId":"134-2941","parents":"Ташкентская область &raquo; Ахангаранский район","name":"Ен-арик","type_id":7,"lat":"40.9131320","lng":"69.7909230","city_id":134,"region_id":12,"typeName":"Село"},{"id":"zn-2987","uId":"139-2987","parents":"Ташкентская область &raquo; Кибрайский район","name":"Ешлик","type_id":7,"lat":"40.1089150","lng":"65.4031200","city_id":139,"region_id":12,"typeName":"Село"}]},"З":{"name":"З","count":2,"items":[{"id":"zn-2971","uId":"138-2971","parents":"Ташкентская область &raquo; Зангиатинский район","name":"Зангиата","type_id":7,"lat":"41.2013450","lng":"69.1594160","city_id":138,"region_id":12,"typeName":"Село"},{"id":"zn-2944","uId":"135-2944","parents":"Ташкентская область &raquo; Бекабадский район","name":"Зафар","type_id":7,"lat":"40.3769930","lng":"69.2475860","city_id":135,"region_id":12,"typeName":"Село"}]},"И":{"name":"И","count":1,"items":[{"id":"zn-2949","uId":"136-2949","parents":"Ташкентская область &raquo; Бостанлыкский район","name":"Искандар","type_id":7,"lat":"41.5635690","lng":"69.7140360","city_id":136,"region_id":12,"typeName":"Село"}]},"К":{"name":"К","count":21,"items":[{"id":"zn-2940","uId":"134-2940","parents":"Ташкентская область &raquo; Ахангаранский район","name":"Каракитай","type_id":7,"lat":"40.9076390","lng":"69.7319220","city_id":134,"region_id":12,"typeName":"Село"},{"id":"zn-2955","uId":"136-2955","parents":"Ташкентская область &raquo; Бостанлыкский район","name":"Каранкул","type_id":7,"lat":"41.6008330","lng":"69.8776100","city_id":136,"region_id":12,"typeName":"Село"},{"id":"zn-3013","uId":"143-3013","parents":"Ташкентская область &raquo; Уртачирчикский район","name":"Карасув","type_id":7,"lat":"39.7287530","lng":"66.9115890","city_id":143,"region_id":12,"typeName":"Село"},{"id":"zn-3004","uId":"138-3004","parents":"Ташкентская область &raquo; Зангиатинский район","name":"Кашкарлик","type_id":7,"lat":"41.4375980","lng":"69.3329710","city_id":138,"region_id":12,"typeName":"Село"},{"id":"zn-3009","uId":"138-3009","parents":"Ташкентская область &raquo; Зангиатинский район","name":"Кенсай","type_id":7,"lat":"41.4292630","lng":"69.2803470","city_id":138,"region_id":12,"typeName":"Село"},{"id":"zn-2978","uId":"139-2978","parents":"Ташкентская область &raquo; Кибрайский район","name":"Кибрай","type_id":7,"lat":"41.3872980","lng":"69.4630470","city_id":139,"region_id":12,"typeName":"Село"},{"id":"zn-3023","uId":"144-3023","parents":"Ташкентская область &raquo; Чиназский район","name":"Кир","type_id":7,"lat":null,"lng":null,"city_id":144,"region_id":12,"typeName":"Село"},{"id":"zn-3030","uId":"146-3030","parents":"Ташкентская область &raquo; Янгиюльский район","name":"Кирсадак","type_id":7,"lat":"41.0918770","lng":"69.0602150","city_id":146,"region_id":12,"typeName":"Село"},{"id":"zn-3026","uId":"145-3026","parents":"Ташкентская область &raquo; Юкоричирчикский район","name":"Китай-тепа","type_id":7,"lat":"41.3228130","lng":"69.4841750","city_id":145,"region_id":12,"typeName":"Село"},{"id":"zn-3029","uId":"146-3029","parents":"Ташкентская область &raquo; Янгиюльский район","name":"Ковунчи","type_id":7,"lat":"41.0907760","lng":"69.0337420","city_id":146,"region_id":12,"typeName":"Село"},{"id":"zn-3032","uId":"148-3032","parents":"Ташкентская область &raquo; Ангрен","name":"Краснагорск","type_id":7,"lat":null,"lng":null,"city_id":148,"region_id":12,"typeName":"Село"},{"id":"zn-2996","uId":"141-2996","parents":"Ташкентская область &raquo; Паркентский район","name":"Куёш","type_id":7,"lat":"40.8398060","lng":"68.5861470","city_id":141,"region_id":12,"typeName":"Село"},{"id":"zn-2974","uId":"138-2974","parents":"Ташкентская область &raquo; Зангиатинский район","name":"Куешли","type_id":7,"lat":"41.2007140","lng":"69.1310470","city_id":138,"region_id":12,"typeName":"Село"},{"id":"zn-3007","uId":"138-3007","parents":"Ташкентская область &raquo; Зангиатинский район","name":"Куксарай","type_id":7,"lat":"41.3544440","lng":"69.1406680","city_id":138,"region_id":12,"typeName":"Село"},{"id":"zn-2990","uId":"139-2990","parents":"Ташкентская область &raquo; Кибрайский район","name":"Куприк-баши","type_id":7,"lat":"41.4168350","lng":"69.5206470","city_id":139,"region_id":12,"typeName":"Село"},{"id":"zn-2951","uId":"136-2951","parents":"Ташкентская область &raquo; Бостанлыкский район","name":"Курбанав","type_id":7,"lat":"41.5286920","lng":"69.6415150","city_id":136,"region_id":12,"typeName":"Село"},{"id":"zn-2998","uId":"141-2998","parents":"Ташкентская область &raquo; Паркентский район","name":"Кургантепа","type_id":7,"lat":"40.7301750","lng":"72.7594960","city_id":141,"region_id":12,"typeName":"Село"},{"id":"zn-2994","uId":"140-2994","parents":"Ташкентская область &raquo; Куйичирчикский район","name":"Кургонча","type_id":7,"lat":"40.9044770","lng":"68.7862740","city_id":140,"region_id":12,"typeName":"Село"},{"id":"zn-2948","uId":"135-2948","parents":"Ташкентская область &raquo; Бекабадский район","name":"Куркам","type_id":7,"lat":"40.4208510","lng":"70.6547250","city_id":135,"region_id":12,"typeName":"Село"},{"id":"zn-3012","uId":"143-3012","parents":"Ташкентская область &raquo; Уртачирчикский район","name":"Кучлик","type_id":7,"lat":null,"lng":null,"city_id":143,"region_id":12,"typeName":"Село"},{"id":"zn-2957","uId":"136-2957","parents":"Ташкентская область &raquo; Бостанлыкский район","name":"Кушкурган","type_id":7,"lat":"39.8027920","lng":"66.8885470","city_id":136,"region_id":12,"typeName":"Село"}]},"М":{"name":"М","count":5,"items":[{"id":"zn-3001","uId":"138-3001","parents":"Ташкентская область &raquo; Зангиатинский район","name":"М-Фазилов","type_id":7,"lat":"41.3732790","lng":"69.1794490","city_id":138,"region_id":12,"typeName":"Село"},{"id":"zn-2985","uId":"139-2985","parents":"Ташкентская область &raquo; Кибрайский район","name":"Маданият","type_id":7,"lat":"41.4240900","lng":"69.3502000","city_id":139,"region_id":12,"typeName":"Село"},{"id":"zn-3025","uId":"145-3025","parents":"Ташкентская область &raquo; Юкоричирчикский район","name":"Мирабад","type_id":7,"lat":"40.8288280","lng":"72.2885000","city_id":145,"region_id":12,"typeName":"Село"},{"id":"zn-2999","uId":"142-2999","parents":"Ташкентская область &raquo; Пскентский район","name":"Муратали","type_id":7,"lat":"40.8215530","lng":"69.3433640","city_id":142,"region_id":12,"typeName":"Село"},{"id":"zn-2980","uId":"139-2980","parents":"Ташкентская область &raquo; Кибрайский район","name":"Мустакиллик","type_id":7,"lat":"41.4302020","lng":"69.3649330","city_id":139,"region_id":12,"typeName":"Село"}]},"Н":{"name":"Н","count":4,"items":[{"id":"zn-2976","uId":"138-2976","parents":"Ташкентская область &raquo; Зангиатинский район","name":"Назарбек","type_id":7,"lat":"41.3071140","lng":"69.1372730","city_id":138,"region_id":12,"typeName":"Село"},{"id":"zn-3031","uId":"146-3031","parents":"Ташкентская область &raquo; Янгиюльский район","name":"Нов","type_id":7,"lat":null,"lng":null,"city_id":146,"region_id":12,"typeName":"Село"},{"id":"zn-3033","uId":"148-3033","parents":"Ташкентская область &raquo; Ангрен","name":"Нурабад","type_id":7,"lat":"40.9052740","lng":"69.8041640","city_id":148,"region_id":12,"typeName":"Село"},{"id":"zn-2982","uId":"139-2982","parents":"Ташкентская область &raquo; Кибрайский район","name":"Нурафшон","type_id":7,"lat":"41.3706260","lng":"60.8322040","city_id":139,"region_id":12,"typeName":"Село"}]},"П":{"name":"П","count":4,"items":[{"id":"zn-2959","uId":"136-2959","parents":"Ташкентская область &raquo; Бостанлыкский район","name":"Паргос","type_id":7,"lat":"41.5472930","lng":"69.6781300","city_id":136,"region_id":12,"typeName":"Село"},{"id":"zn-2975","uId":"138-2975","parents":"Ташкентская область &raquo; Зангиатинский район","name":"Пасдархон","type_id":7,"lat":"41.2379860","lng":"69.2056350","city_id":138,"region_id":12,"typeName":"Село"},{"id":"zn-3019","uId":"144-3019","parents":"Ташкентская область &raquo; Чиназский район","name":"Пахта","type_id":7,"lat":"41.0176410","lng":"68.9409460","city_id":144,"region_id":12,"typeName":"Село"},{"id":"zn-2995","uId":"140-2995","parents":"Ташкентская область &raquo; Куйичирчикский район","name":"Пахтазар","type_id":7,"lat":"40.9875340","lng":"69.0497320","city_id":140,"region_id":12,"typeName":"Село"}]},"С":{"name":"С","count":7,"items":[{"id":"zn-3008","uId":"138-3008","parents":"Ташкентская область &raquo; Зангиатинский район","name":"Сабзават","type_id":7,"lat":"41.3880830","lng":"69.3208170","city_id":138,"region_id":12,"typeName":"Село"},{"id":"zn-2962","uId":"136-2962","parents":"Ташкентская область &raquo; Бостанлыкский район","name":"Сабир-рахимав","type_id":7,"lat":"40.8638910","lng":"68.6665470","city_id":136,"region_id":12,"typeName":"Село"},{"id":"zn-3000","uId":"142-3000","parents":"Ташкентская область &raquo; Пскентский район","name":"Саид","type_id":7,"lat":"40.8482720","lng":"69.3626600","city_id":142,"region_id":12,"typeName":"Село"},{"id":"zn-2960","uId":"136-2960","parents":"Ташкентская область &raquo; Бостанлыкский район","name":"Сайлик","type_id":7,"lat":"41.6131180","lng":"69.7688780","city_id":136,"region_id":12,"typeName":"Село"},{"id":"zn-2979","uId":"139-2979","parents":"Ташкентская область &raquo; Кибрайский район","name":"Салар","type_id":7,"lat":"41.3755390","lng":"69.3658580","city_id":139,"region_id":12,"typeName":"Село"},{"id":"zn-2965","uId":"136-2965","parents":"Ташкентская область &raquo; Бостанлыкский район","name":"Сари-канли","type_id":7,"lat":"41.5502420","lng":"69.7385960","city_id":136,"region_id":12,"typeName":"Село"},{"id":"zn-3394","uId":"136-3394","parents":"Ташкентская область &raquo; Бостанлыкский район","name":"Сиджак","type_id":7,"lat":"41.6914400","lng":"70.0584050","city_id":136,"region_id":12,"typeName":"Село"}]},"Т":{"name":"Т","count":5,"items":[{"id":"zn-2963","uId":"136-2963","parents":"Ташкентская область &raquo; Бостанлыкский район","name":"Талпин","type_id":7,"lat":null,"lng":null,"city_id":136,"region_id":12,"typeName":"Село"},{"id":"zn-2977","uId":"138-2977","parents":"Ташкентская область &raquo; Зангиатинский район","name":"Тарнав","type_id":7,"lat":"41.2958210","lng":"69.0936240","city_id":138,"region_id":12,"typeName":"Село"},{"id":"zn-2943","uId":"134-2943","parents":"Ташкентская область &raquo; Ахангаранский район","name":"Телов","type_id":7,"lat":"40.8796290","lng":"69.8122670","city_id":134,"region_id":12,"typeName":"Село"},{"id":"zn-2952","uId":"136-2952","parents":"Ташкентская область &raquo; Бостанлыкский район","name":"Тулабе","type_id":7,"lat":null,"lng":null,"city_id":136,"region_id":12,"typeName":"Село"},{"id":"zn-3010","uId":"143-3010","parents":"Ташкентская область &raquo; Уртачирчикский район","name":"Туябугиз","type_id":7,"lat":"40.9976420","lng":"69.3006220","city_id":143,"region_id":12,"typeName":"Село"}]},"У":{"name":"У","count":6,"items":[{"id":"zn-2958","uId":"136-2958","parents":"Ташкентская область &raquo; Бостанлыкский район","name":"Уенкулсай","type_id":7,"lat":null,"lng":null,"city_id":136,"region_id":12,"typeName":"Село"},{"id":"zn-2988","uId":"139-2988","parents":"Ташкентская область &raquo; Кибрайский район","name":"Уймамут","type_id":7,"lat":null,"lng":null,"city_id":139,"region_id":12,"typeName":"Село"},{"id":"zn-2969","uId":"138-2969","parents":"Ташкентская область &raquo; Зангиатинский район","name":"Улугбек","type_id":7,"lat":"41.4060420","lng":"69.4583400","city_id":138,"region_id":12,"typeName":"Село"},{"id":"zn-2986","uId":"139-2986","parents":"Ташкентская область &raquo; Кибрайский район","name":"Ункургон-1","type_id":7,"lat":"41.3948750","lng":"69.3478470","city_id":139,"region_id":12,"typeName":"Село"},{"id":"zn-2966","uId":"138-2966","parents":"Ташкентская область &raquo; Зангиатинский район","name":"Уртаавул","type_id":7,"lat":"41.1840350","lng":"69.1393750","city_id":138,"region_id":12,"typeName":"Село"},{"id":"zn-2981","uId":"139-2981","parents":"Ташкентская область &raquo; Кибрайский район","name":"Уткир","type_id":7,"lat":"41.2958890","lng":"69.3950890","city_id":139,"region_id":12,"typeName":"Село"}]},"Х":{"name":"Х","count":8,"items":[{"id":"zn-2993","uId":"139-2993","parents":"Ташкентская область &raquo; Кибрайский район","name":"Х-Амиров","type_id":7,"lat":null,"lng":null,"city_id":139,"region_id":12,"typeName":"Село"},{"id":"zn-2939","uId":"133-2939","parents":"Ташкентская область &raquo; Аккурганский район","name":"Хамзаабад","type_id":7,"lat":"40.7711710","lng":"68.9642750","city_id":133,"region_id":12,"typeName":"Село"},{"id":"zn-2973","uId":"138-2973","parents":"Ташкентская область &raquo; Зангиатинский район","name":"Ханабад","type_id":7,"lat":"41.2525366","lng":"69.2652177","city_id":138,"region_id":12,"typeName":"Село"},{"id":"zn-3003","uId":"138-3003","parents":"Ташкентская область &raquo; Зангиатинский район","name":"Хасанбой","type_id":7,"lat":"41.4072460","lng":"69.2628030","city_id":138,"region_id":12,"typeName":"Село"},{"id":"zn-2945","uId":"135-2945","parents":"Ташкентская область &raquo; Бекабадский район","name":"Хос","type_id":7,"lat":null,"lng":null,"city_id":135,"region_id":12,"typeName":"Село"},{"id":"zn-2964","uId":"136-2964","parents":"Ташкентская область &raquo; Бостанлыкский район","name":"Худжа","type_id":7,"lat":null,"lng":null,"city_id":136,"region_id":12,"typeName":"Село"},{"id":"zn-2954","uId":"136-2954","parents":"Ташкентская область &raquo; Бостанлыкский район","name":"Худжакент","type_id":7,"lat":"41.6355900","lng":"69.9495200","city_id":136,"region_id":12,"typeName":"Село"},{"id":"zn-2961","uId":"136-2961","parents":"Ташкентская область &raquo; Бостанлыкский район","name":"Хумсан","type_id":7,"lat":"41.6705970","lng":"69.9587730","city_id":136,"region_id":12,"typeName":"Село"}]},"Ч":{"name":"Ч","count":7,"items":[{"id":"zn-3022","uId":"144-3022","parents":"Ташкентская область &raquo; Чиназский район","name":"Чарвадар","type_id":7,"lat":"40.5804230","lng":"68.9896080","city_id":144,"region_id":12,"typeName":"Село"},{"id":"zn-2950","uId":"136-2950","parents":"Ташкентская область &raquo; Бостанлыкский район","name":"Чарвак","type_id":7,"lat":"41.6343840","lng":"69.9379860","city_id":136,"region_id":12,"typeName":"Село"},{"id":"zn-3005","uId":"138-3005","parents":"Ташкентская область &raquo; Зангиатинский район","name":"Чигатай","type_id":7,"lat":"41.3546200","lng":"69.1582300","city_id":138,"region_id":12,"typeName":"Село"},{"id":"zn-3034","uId":"148-3034","parents":"Ташкентская область &raquo; Ангрен","name":"Чигирик","type_id":7,"lat":"41.0148580","lng":"69.3596240","city_id":148,"region_id":12,"typeName":"Село"},{"id":"zn-3396","uId":"136-3396","parents":"Ташкентская область &raquo; Бостанлыкский район","name":"Чимган","type_id":7,"lat":"41.5405920","lng":"70.0281590","city_id":136,"region_id":12,"typeName":"Село"},{"id":"zn-2953","uId":"136-2953","parents":"Ташкентская область &raquo; Бостанлыкский район","name":"Чинар","type_id":7,"lat":null,"lng":null,"city_id":136,"region_id":12,"typeName":"Село"},{"id":"zn-2997","uId":"141-2997","parents":"Ташкентская область &raquo; Паркентский район","name":"Чинарли","type_id":7,"lat":null,"lng":null,"city_id":141,"region_id":12,"typeName":"Село"}]},"Ш":{"name":"Ш","count":2,"items":[{"id":"zn-3014","uId":"143-3014","parents":"Ташкентская область &raquo; Уртачирчикский район","name":"Шаликар","type_id":7,"lat":"41.1855760","lng":"69.3299970","city_id":143,"region_id":12,"typeName":"Село"},{"id":"zn-3006","uId":"138-3006","parents":"Ташкентская область &raquo; Зангиатинский район","name":"Шамсиабад","type_id":7,"lat":"41.3596420","lng":"69.1143030","city_id":138,"region_id":12,"typeName":"Село"}]},"Э":{"name":"Э","count":2,"items":[{"id":"zn-2970","uId":"138-2970","parents":"Ташкентская область &raquo; Зангиатинский район","name":"Эркин","type_id":7,"lat":"41.2273730","lng":"69.1679320","city_id":138,"region_id":12,"typeName":"Село"},{"id":"zn-2967","uId":"138-2967","parents":"Ташкентская область &raquo; Зангиатинский район","name":"Эшангузар","type_id":7,"lat":"41.2514650","lng":"69.1538830","city_id":138,"region_id":12,"typeName":"Село"}]},"Ю":{"name":"Ю","count":1,"items":[{"id":"zn-3395","uId":"136-3395","parents":"Ташкентская область &raquo; Бостанлыкский район","name":"Юсуфхона","type_id":7,"lat":"41.6182610","lng":"70.0435650","city_id":136,"region_id":12,"typeName":"Село"}]},"Я":{"name":"Я","count":4,"items":[{"id":"zn-3011","uId":"143-3011","parents":"Ташкентская область &raquo; Уртачирчикский район","name":"Янги Хаёт","type_id":7,"lat":"40.9983700","lng":"69.3653640","city_id":143,"region_id":12,"typeName":"Село"},{"id":"zn-3016","uId":"144-3016","parents":"Ташкентская область &raquo; Чиназский район","name":"Янги Чиназ","type_id":7,"lat":"40.9109720","lng":"68.7105820","city_id":144,"region_id":12,"typeName":"Село"},{"id":"zn-2947","uId":"135-2947","parents":"Ташкентская область &raquo; Бекабадский район","name":"Янгибазар","type_id":7,"lat":"41.3127630","lng":"69.5239260","city_id":135,"region_id":12,"typeName":"Село"},{"id":"zn-3024","uId":"145-3024","parents":"Ташкентская область &raquo; Юкоричирчикский район","name":"Янгибазар","type_id":7,"lat":"41.3140500","lng":"69.5255610","city_id":145,"region_id":12,"typeName":"Село"}]}}},"z-70":{"name":"Город","count":11,"letterTabs":["А","Б","Г","Д","К","П","Ч","Я"],"letters":{"А":{"name":"А","count":2,"items":[{"id":"zn-3374","uId":"133-3374","parents":"Ташкентская область &raquo; Аккурганский район &raquo; Город","name":"Аккурган","type_id":8,"lat":"40.8786540","lng":"69.0486000","city_id":133,"region_id":12,"typeName":"Город"},{"id":"zn-3375","uId":"134-3375","parents":"Ташкентская область &raquo; Ахангаранский район &raquo; Город","name":"Ахангаран","type_id":8,"lat":"40.9138820","lng":"69.6480550","city_id":134,"region_id":12,"typeName":"Город"}]},"Б":{"name":"Б","count":1,"items":[{"id":"zn-3376","uId":"137-3376","parents":"Ташкентская область &raquo; Букинский район &raquo; Город","name":"Бука","type_id":8,"lat":"40.8142720","lng":"69.2013050","city_id":137,"region_id":12,"typeName":"Город"}]},"Г":{"name":"Г","count":1,"items":[{"id":"zn-3377","uId":"136-3377","parents":"Ташкентская область &raquo; Бостанлыкский район &raquo; Город","name":"Газалкент","type_id":8,"lat":"41.5618280","lng":"69.7710340","city_id":136,"region_id":12,"typeName":"Город"}]},"Д":{"name":"Д","count":1,"items":[{"id":"zn-3378","uId":"140-3378","parents":"Ташкентская область &raquo; Куйичирчикский район &raquo; Город","name":"Дустабад","type_id":8,"lat":"40.8587490","lng":"68.9281720","city_id":140,"region_id":12,"typeName":"Город"}]},"К":{"name":"К","count":1,"items":[{"id":"zn-3379","uId":"138-3379","parents":"Ташкентская область &raquo; Зангиатинский район &raquo; Город","name":"Келес","type_id":8,"lat":"41.4057980","lng":"69.2074310","city_id":138,"region_id":12,"typeName":"Город"}]},"П":{"name":"П","count":2,"items":[{"id":"zn-3381","uId":"141-3381","parents":"Ташкентская область &raquo; Паркентский район &raquo; Город","name":"Паркент","type_id":8,"lat":"41.2950080","lng":"69.6735040","city_id":141,"region_id":12,"typeName":"Город"},{"id":"zn-3382","uId":"142-3382","parents":"Ташкентская область &raquo; Пскентский район &raquo; Город","name":"Пскент","type_id":8,"lat":"40.8981040","lng":"69.3511530","city_id":142,"region_id":12,"typeName":"Город"}]},"Ч":{"name":"Ч","count":1,"items":[{"id":"zn-3383","uId":"144-3383","parents":"Ташкентская область &raquo; Чиназский район &raquo; Город","name":"Чиназ","type_id":8,"lat":"40.9348060","lng":"68.7633040","city_id":144,"region_id":12,"typeName":"Город"}]},"Я":{"name":"Я","count":2,"items":[{"id":"zn-3384","uId":"148-3384","parents":"Ташкентская область &raquo; Ангрен &raquo; Город","name":"Янгиабад","type_id":8,"lat":"40.4984630","lng":"71.3787310","city_id":148,"region_id":12,"typeName":"Город"},{"id":"zn-3385","uId":"146-3385","parents":"Ташкентская область &raquo; Янгиюльский район &raquo; Город","name":"Янгиюль","type_id":8,"lat":"40.5379860","lng":"71.4167750","city_id":146,"region_id":12,"typeName":"Город"}]}}}},"errorMethod":null,"errors":null,"messages":null,"success":true,"statusCode":200,"apiVersionCode":2,"apiVersionName":"0.02","controllerAction":"LocationController@getCitiesAndZonesGroupedByType","productCode":"uybor","request":{"method":"GET","data":[],"user_id":null}}